,id,type of property,subtype of property,locality,latitude,longitude,street,postalCode,price,type of sale,number of bedrooms,living area,livable area,fully equipped kitchen,furnished,open fire,terrace,terrace area,garden,garden area,total property area,total land area,number of facades,swimming pool,state of the building,Unnamed: 0,Gemeente,Province,Population,Area(km2),Density,kitchen,price per sqr
0,10833667,HOUSE,HOUSE,Seraing,50.5982237,5.5187843,Place Merlot 6,4100,144000,residential_sale,2,14,105.0,semi_equipped,False,False,True,0.0,True,25.0,105.0,105.0,2.0,False,good,297,Seraing,Liège,1106992,3857.0,288,Semi equipped,1371.428571428571
1,10833916,HOUSE,HOUSE,Herstal,50.6586095,5.6238621,Rue de la Wallonie 2A,4040,164000,residential_sale,4,25,167.0,installed,False,False,True,80.0,False,0.0,167.0,90.0,3.0,False,to_be_done_up,295,Herstal,Liège,1106992,3857.0,288,,982.0359281437126
2,10833652,HOUSE,MIXED_USE_BUILDING,Aalst,50.9082544,4.0258775,Hoogstraat 20,9300,295000,residential_sale,3,30,249.0,installed,False,False,True,21.0,False,0.0,249.0,180.0,2.0,False,good,669,Aalst,Oost-Vlaanderen,1515064,3007.0,504,,1184.7389558232933
3,10833480,HOUSE,TOWN_HOUSE,Dilbeek,50.8362888,4.2557813,Astridlaan 1,1700,590000,residential_sale,4,52,290.0,hyper_equipped,False,False,True,0.0,False,0.0,290.0,517.0,3.0,True,good,87,Dilbeek,Vlaams-Brabant,1146175,2118.0,542,Hyper equipped,2034.4827586206895
4,10831508,HOUSE,HOUSE,Antwerp,51.2251216,4.4058824,"Mechelsesteenweg,157",2000,439900,residential_sale,2,45,160.0,installed,False,False,True,13.0,False,0.0,160.0,48.0,2.0,False,as_new,111,Antwerpen,Antwerpen,1857986,2876.0,647,,2749.375
5,10831292,HOUSE,HOUSE,Lede,50.9600883,3.8896037,Hoogstraat 20,9340,449000,residential_sale,2,27,145.0,hyper_equipped,False,False,True,0.0,False,0.0,145.0,527.0,3.0,False,as_new,671,Lede,Oost-Vlaanderen,1515064,3007.0,504,Hyper equipped,3096.551724137931
6,10831406,HOUSE,HOUSE,Lievegem,51.1136326,3.5629715,Sint-Denijslaan 1,9930,495000,residential_sale,4,48,194.0,usa_hyper_equipped,False,False,True,66.0,True,630.0,194.0,975.0,3.0,False,good,698,Lievegem,Oost-Vlaanderen,1515064,3007.0,504,,2551.546391752577
7,10831251,HOUSE,VILLA,Holsbeek Kortrijk-Dutsel,50.9240926,4.807283,Tiensesteenweg 93,3220,579000,residential_sale,4,36,225.0,installed,False,False,True,18.0,False,0.0,225.0,1103.0,4.0,False,good,227,Holsbeek,Vlaams-Brabant,1146175,2118.0,542,,2573.333333333333
8,10832715,HOUSE,HOUSE,Etterbeek,50.8359364,4.4025428,Avenue de Tervuren 113,1040,1150000,residential_sale,6,39,300.0,hyper_equipped,False,False,True,40.0,True,150.0,300.0,260.0,2.0,False,as_new,5,Etterbeek,Brussel,1208542,162.4,7442,Hyper equipped,3833.3333333333335
9,10828460,HOUSE,HOUSE,Aalst,50.9428493,4.0311979,Hoogstraat 20,9300,159000,residential_sale,2,27,81.0,usa_installed,False,False,True,0.0,True,70.0,81.0,120.0,2.0,False,to_be_done_up,669,Aalst,Oost-Vlaanderen,1515064,3007.0,504,Equipped,1962.962962962963
10,10828802,HOUSE,HOUSE,Mechelen,51.0199386,4.4712784,Hoogstraat 5,2800,295000,residential_sale,2,19,172.0,installed,False,False,True,0.0,False,0.0,172.0,189.0,2.0,False,good,190,Mechelen,Antwerpen,1857986,2876.0,647,,1715.1162790697674
11,10828745,HOUSE,HOUSE,Wezembeek-Oppem,50.8469893,4.5052158,"Wezembeeklaan, 120",1970,329000,residential_sale,3,20,80.0,installed,False,False,True,28.0,True,60.0,80.0,170.0,3.0,False,to_be_done_up,109,Wezembeek-Oppem,Vlaams-Brabant,1146175,2118.0,542,,4112.5
12,10829358,HOUSE,HOUSE,Uccle,50.8116637,4.3443292,Avenue Baron Albert d'Huart 130,1180,695000,residential_sale,4,20,185.0,usa_installed,False,False,True,0.0,True,240.0,185.0,308.0,2.0,False,to_renovate,25,Uccle,Brussel,1208542,162.4,7442,Equipped,3756.7567567567567
13,10828236,HOUSE,HOUSE,Ixelles,50.8114646,4.3885928,Avenue Louise 589,1050,830000,residential_sale,4,30,282.0,installed,False,False,False,0.0,True,80.0,282.0,163.0,2.0,False,to_be_done_up,6,Elsene,Brussel,1208542,162.4,7442,,2943.2624113475176
14,10826704,HOUSE,HOUSE,Liège,50.6143679,5.5882618,Avenue des Ardennes 1/02,4031,249000,residential_sale,1,19,95.0,installed,False,True,False,0.0,True,93.0,95.0,149.0,2.0,False,just_renovated,1250,Liège,Liège,1106992,3857.0,288,,2621.0526315789475
15,10825503,HOUSE,HOUSE,Bertem,50.8646939,4.6339421,Veemarkt 14,3060,298000,residential_sale,4,24,112.0,semi_equipped,False,False,True,24.0,True,272.0,112.0,450.0,4.0,False,to_be_done_up,215,Bertem,Vlaams-Brabant,1146175,2118.0,542,Semi equipped,2660.714285714286
16,10826180,HOUSE,APARTMENT_BLOCK,Malmedy,50.4236697,6.0299876,Rue Simon 46/2,4960,299000,residential_sale,2,0,167.0,semi_equipped,False,False,False,0.0,False,0.0,167.0,95.0,2.0,False,good,391,Malmedy,Liège,1106992,3857.0,288,Semi equipped,1790.4191616766468
17,10827696,HOUSE,HOUSE,Wezembeek-Oppem,50.8469893,4.5052158,Parvis Sainte-Alix 37,1970,329000,residential_sale,3,20,80.0,installed,False,False,True,14.0,True,60.0,80.0,170.0,3.0,False,to_be_done_up,109,Wezembeek-Oppem,Vlaams-Brabant,1146175,2118.0,542,,4112.5
18,10825693,HOUSE,HOUSE,Roosdaal,50.8325115,4.0840258,Burchtstraat 12,1760,360000,residential_sale,3,20,301.0,semi_equipped,False,False,True,0.0,False,0.0,301.0,545.0,3.0,False,good,93,Roosdaal,Vlaams-Brabant,1146175,2118.0,542,Semi equipped,1196.0132890365448
19,10833482,HOUSE,HOUSE,Dilbeek,50.8374144,4.206592,Astridlaan 1,1703,545000,residential_sale,3,56,192.0,installed,False,False,True,0.0,False,0.0,192.0,1000.0,4.0,False,to_be_done_up,833,Dilbeek,Vlaams-Brabant,1146175,2118.0,542,,2838.5416666666665
20,10833882,HOUSE,VILLA,Wezembeek-Oppem,50.8441679,4.4846789,Mechelsesteenweg 83 ,1970,645000,residential_sale,4,25,160.0,hyper_equipped,False,False,True,24.0,False,0.0,160.0,368.0,4.0,False,good,109,Wezembeek-Oppem,Vlaams-Brabant,1146175,2118.0,542,Hyper equipped,4031.25
21,10823978,HOUSE,HOUSE,Oupeye,50.7373586,5.6083125,Rue de la Wallonie 2A,4682,149000,residential_sale,3,12,138.0,installed,False,False,True,20.0,True,390.0,138.0,571.0,3.0,False,to_renovate,1461,Oupeye,Liège,1106992,3857.0,288,,1079.7101449275362
22,10823979,HOUSE,HOUSE,Grace-Hollogne,50.6364036,5.4778989,Rue de la Wallonie 2A,4460,199000,residential_sale,3,32,133.0,installed,False,False,True,65.0,True,470.0,133.0,583.0,2.0,False,good,330,Grâce-Hollogne,Liège,1106992,3857.0,288,,1496.2406015037593
23,10823777,HOUSE,HOUSE,Ronse,50.7403801,3.6094447,Stationstraat 30,9600,289000,residential_sale,3,0,156.0,installed,False,False,False,0.0,True,350.0,156.0,555.0,3.0,False,good,681,Ronse,Oost-Vlaanderen,1515064,3007.0,504,,1852.5641025641023
24,10823722,HOUSE,HOUSE,Deurne,51.2258595,4.4624212,Plantin en Moretuslei 135A,2100,314000,residential_sale,3,52,151.0,semi_equipped,False,True,False,0.0,True,60.0,151.0,136.0,2.0,False,good,126,Antwerpen,Antwerpen,1857986,2876.0,647,Semi equipped,2079.4701986754967
25,10834082,APARTMENT,APARTMENT,Nivelles,50.5986643,4.3471236,Chaussée de Mons 14,1400,218000,residential_sale,3,30,95.0,installed,False,True,True,13.0,True,0.0,95.0,0.0,4.0,False,to_renovate,53,Nivelles,Brabant wallon,403599,1097.0,368,,2294.736842105264
26,10833378,APARTMENT,APARTMENT,Uccle,50.8155932,4.3401837,Avenue René Gobert 26,1180,499000,residential_sale,2,50,135.0,installed,False,False,True,5.0,False,0.0,135.0,0.0,3.0,False,good,25,Uccle,Brussel,1208542,162.4,7442,,3696.296296296296
27,10833488,APARTMENT,APARTMENT,Ixelles,50.8394052,4.3698703,Avenue Baron Albert d'Huart 130,1050,995000,residential_sale,3,68,180.0,hyper_equipped,False,False,True,0.0,False,0.0,180.0,0.0,2.0,False,as_new,6,Elsene,Brussel,1208542,162.4,7442,Hyper equipped,5527.777777777777
28,10723941,APARTMENT,APARTMENT,Temse,51.1278757,4.2163573,,9140,139000,residential_sale,1,30,85.0,semi_equipped,False,False,True,6.0,False,0.0,85.0,0.0,2.0,False,to_be_done_up,650,Temse,Oost-Vlaanderen,1515064,3007.0,504,Semi equipped,1635.2941176470588
29,10734012,APARTMENT,APARTMENT,Wetteren,51.0037433,3.8980609,,9230,209900,residential_sale,2,40,102.0,semi_equipped,False,False,False,0.0,False,0.0,102.0,0.0,3.0,False,as_new,661,Wetteren,Oost-Vlaanderen,1515064,3007.0,504,Semi equipped,2057.843137254902
30,10831379,APARTMENT,APARTMENT,Liège Grivegnée,50.6216,5.61074,Rue Bonne Fortune 9,4030,239000,residential_sale,2,35,100.0,installed,False,False,True,20.0,False,0.0,100.0,0.0,2.0,False,to_be_done_up,1249,Liège,Liège,1106992,3857.0,288,,2390.0
31,10832137,APARTMENT,APARTMENT,Schaerbeek,50.8658051,4.3802553,drève richelle 96,1030,245000,residential_sale,1,27,61.0,semi_equipped,True,False,True,13.0,False,0.0,61.0,0.0,2.0,False,as_new,3,Schaarbeek,Brussel,1208542,162.4,7442,Semi equipped,4016.393442622951
32,10831606,APARTMENT,APARTMENT,Uccle,50.8008712,4.3353263,Avenue Louise 433,1180,295000,residential_sale,2,24,92.0,semi_equipped,False,False,True,7.0,False,0.0,92.0,0.0,2.0,False,good,25,Uccle,Brussel,1208542,162.4,7442,Semi equipped,3206.521739130435
33,10831289,APARTMENT,APARTMENT,Gent,51.0457272,3.7266729,Hoogstraat 20,9000,309000,residential_sale,2,26,90.0,installed,False,False,True,0.0,False,0.0,90.0,0.0,2.0,False,good,641,Gent,Oost-Vlaanderen,1515064,3007.0,504,,3433.333333333333
34,10831105,APARTMENT,APARTMENT,Gent,51.0428524,3.7359425,Kouter 98,9000,349000,residential_sale,2,0,80.0,installed,False,False,True,5.0,False,0.0,80.0,0.0,2.0,False,good,641,Gent,Oost-Vlaanderen,1515064,3007.0,504,,4362.5
35,10831566,APARTMENT,APARTMENT,Woluwe-Saint-Lambert,50.8462677,4.4107446,Avenue de l'université 38/40,1200,359000,residential_sale,2,40,95.0,usa_hyper_equipped,False,False,True,5.0,False,0.0,95.0,0.0,2.0,False,as_new,29,Sint-Lambrechts-Woluwe,Brussel,1208542,162.4,7442,,3778.947368421053
36,10831920,APARTMENT,DUPLEX,St-Gilles,50.8261139,4.340743,Avenue Louise 523,1060,450000,residential_sale,3,54,135.0,hyper_equipped,False,False,False,0.0,False,0.0,135.0,0.0,3.0,False,good,8,Saint-Gilles,Brussel,1208542,162.4,7442,Hyper equipped,3333.333333333333
37,10831237,APARTMENT,GROUND_FLOOR,Woluwe-Saint-Pierre,50.8374183,4.4200755,"Val des Seigneurs, 9a",1150,599000,residential_sale,2,60,180.0,installed,False,False,True,20.0,True,50.0,180.0,0.0,2.0,False,good,19,Sint-Pieters-Woluwe,Brussel,1208542,162.4,7442,,3327.777777777778
38,10832759,APARTMENT,APARTMENT,Etterbeek,50.8346125,4.3933371,Rue Archimède 41,1040,650000,residential_sale,3,40,189.0,hyper_equipped,False,False,False,0.0,False,0.0,189.0,0.0,2.0,False,good,5,Etterbeek,Brussel,1208542,162.4,7442,Hyper equipped,3439.153439153439
39,10830254,APARTMENT,APARTMENT,Brussels City,50.8546109,4.3606333,Vismarkt 10 c,1000,185000,residential_sale,1,0,38.0,installed,True,True,False,0.0,False,0.0,38.0,0.0,3.0,False,good,1,Brussel,Brussel,1208542,162.4,7442,,4868.421052631579
40,10829703,APARTMENT,APARTMENT,Willebroek,51.06062,4.3613824,Dr. Persoonslaan 15 b ,2830,185250,residential_sale,2,30,83.0,semi_equipped,False,True,True,0.0,False,0.0,83.0,0.0,2.0,False,to_be_done_up,193,Willebroek,Antwerpen,1857986,2876.0,647,Semi equipped,2231.927710843373
41,10724438,APARTMENT,PENTHOUSE,Woluwe-Saint-Pierre,50.8378128,4.463274,Avenue Orban 240,1150,399000,residential_sale,2,0,117.0,hyper_equipped,False,False,False,0.0,False,0.0,117.0,0.0,3.0,False,just_renovated,19,Sint-Pieters-Woluwe,Brussel,1208542,162.4,7442,Hyper equipped,3410.25641025641
42,10828785,APARTMENT,APARTMENT,Ixelles,50.8372668,4.3599282,Rue de la Concorde 16,1050,485000,residential_sale,1,36,70.0,hyper_equipped,False,False,True,16.0,False,0.0,70.0,0.0,2.0,False,as_new,6,Elsene,Brussel,1208542,162.4,7442,Hyper equipped,6928.571428571428
43,10826600,APARTMENT,DUPLEX,Vilvoorde,50.9283358,4.4218495,200 Hendrik I Lei,1800,299000,residential_sale,2,46,143.0,usa_hyper_equipped,False,False,False,0.0,False,0.0,143.0,0.0,2.0,False,as_new,98,Vilvoorde,Vlaams-Brabant,1146175,2118.0,542,,2090.909090909091
44,10825616,APARTMENT,APARTMENT,Gent,51.0445987,3.7362865,Sint-Denijslaan 1,9000,315000,residential_sale,2,38,88.0,installed,False,False,True,6.0,False,0.0,88.0,0.0,2.0,False,good,641,Gent,Oost-Vlaanderen,1515064,3007.0,504,,3579.5454545454545
45,10825078,APARTMENT,APARTMENT,Gent,51.0265014,3.7104008,Sluizeken 16,9000,225000,residential_sale,1,30,60.0,installed,False,True,False,0.0,False,0.0,60.0,0.0,2.0,False,good,641,Gent,Oost-Vlaanderen,1515064,3007.0,504,,3750.0
46,10833524,APARTMENT,APARTMENT,Hoboken,51.1783882,4.3571245,Prins Boudewijnlaan 122,2660,169000,residential_sale,2,36,90.0,0,False,True,True,2.0,False,0.0,90.0,0.0,2.0,False,to_be_done_up,188,Antwerpen,Antwerpen,1857986,2876.0,647,,1877.7777777777776
47,10823729,APARTMENT,APARTMENT,Deurne,51.2307397,4.4642639,Plantin en Moretuslei 135A,2100,182500,residential_sale,2,33,85.0,semi_equipped,False,True,False,0.0,False,0.0,85.0,0.0,2.0,False,good,126,Antwerpen,Antwerpen,1857986,2876.0,647,Semi equipped,2147.058823529412
48,10823728,APARTMENT,APARTMENT,Wilrijk,51.1827458,4.3747221,Plantin en Moretuslei 135A,2610,215000,residential_sale,1,26,71.0,installed,False,True,False,0.0,False,0.0,71.0,0.0,2.0,False,just_renovated,181,Antwerpen,Antwerpen,1857986,2876.0,647,,3028.169014084507
49,10823718,APARTMENT,APARTMENT,Antwerp,51.2105423,4.4630318,Plantin en Moretuslei 135A,2100,219000,residential_sale,2,35,91.0,installed,False,True,True,3.0,False,0.0,91.0,0.0,2.0,False,good,126,Antwerpen,Antwerpen,1857986,2876.0,647,,2406.5934065934066
50,10824001,APARTMENT,APARTMENT,Bruxelles,50.8158273,4.3894463,Chaussée de Waterloo 1135,1050,325000,residential_sale,1,39,82.0,usa_hyper_equipped,False,False,True,21.0,False,0.0,82.0,0.0,2.0,False,as_new,6,Elsene,Brussel,1208542,162.4,7442,,3963.4146341463415
51,10824448,APARTMENT,APARTMENT,Blankenberge,51.3188534,3.1397866,Franchommelaan 82-86,8370,525000,residential_sale,2,0,80.0,installed,True,True,True,0.0,False,0.0,80.0,0.0,2.0,False,as_new,571,Blankenberge,West-Vlaanderen,1344241,3813.0,353,,6562.5
52,10438481,APARTMENT,APARTMENT,Knokke-Heist,51.3463062,3.2891988,Koningslaan 252 B,8300,665000,residential_sale,2,0,85.0,hyper_equipped,False,False,True,0.0,False,0.0,85.0,0.0,0.0,False,good,569,Knokke-Heist,West-Vlaanderen,1344241,3813.0,353,Hyper equipped,7823.529411764706
53,10824516,HOUSE,HOUSE,MOHA,50.5455772,5.1833921,Avenuedes Ardennes 7d,4520,385000,residential_sale,7,50,350.0,installed,False,True,True,30.0,True,0.0,350.0,1199.0,4.0,False,good,335,Wanze,Liège,1106992,3857.0,288,,1100.0
54,10823494,HOUSE,HOUSE,Erpe-Mere,50.9097265,3.9730327,Hoogstraat 20,9420,498000,residential_sale,4,44,205.0,hyper_equipped,False,False,True,0.0,False,0.0,205.0,663.0,3.0,False,as_new,673,Erpe-Mere,Oost-Vlaanderen,1515064,3007.0,504,Hyper equipped,2429.268292682927
55,10823496,HOUSE,HOUSE,Aalst,50.9838604,4.0561839,Hoogstraat 20,9300,679000,residential_sale,5,22,370.0,hyper_equipped,False,False,True,0.0,False,0.0,370.0,961.0,4.0,False,as_new,669,Aalst,Oost-Vlaanderen,1515064,3007.0,504,Hyper equipped,1835.1351351351352
56,10831287,HOUSE,HOUSE,Herzele,50.8718017,3.9166399,Hoogstraat 20,9550,149000,residential_sale,2,22,96.0,installed,False,False,False,0.0,False,0.0,96.0,54.0,2.0,False,good,679,Herzele,Oost-Vlaanderen,1515064,3007.0,504,,1552.0833333333333
57,10831725,HOUSE,HOUSE,Seraing,50.6064875,5.5145329,Place Merlot 6,4100,170000,residential_sale,3,0,120.0,semi_equipped,False,False,True,22.0,False,0.0,120.0,90.0,2.0,False,good,297,Seraing,Liège,1106992,3857.0,288,Semi equipped,1416.6666666666667
58,10831690,HOUSE,HOUSE,Braine-l'Alleud,50.6821691,4.3665658,122 RUE DE MONT-ST-PONT,1420,260000,residential_sale,2,24,130.0,installed,False,False,True,20.0,True,55.0,130.0,155.0,2.0,False,good,56,Braine-l'Alleud,Brabant wallon,403599,1097.0,368,,2000.0
59,10831305,HOUSE,HOUSE,Haaltert,50.8835942,3.9889926,Hoogstraat 20,9450,298000,residential_sale,3,22,195.0,installed,False,False,True,0.0,False,0.0,195.0,350.0,2.0,False,good,674,Haaltert,Oost-Vlaanderen,1515064,3007.0,504,,1528.2051282051282
60,10831556,HOUSE,HOUSE,Genappe,50.5987996,4.4921051,Grand Place 2,1470,335000,residential_sale,3,26,213.0,0,False,False,False,0.0,True,337.0,213.0,474.0,3.0,False,to_be_done_up,66,Genappe,Brabant wallon,403599,1097.0,368,,1572.7699530516431
61,10831288,HOUSE,HOUSE,Erpe-Mere,50.9178325,3.9324572,Hoogstraat 20,9420,379000,residential_sale,3,18,200.0,usa_installed,False,False,True,40.0,True,650.0,200.0,860.0,4.0,False,good,673,Erpe-Mere,Oost-Vlaanderen,1515064,3007.0,504,Equipped,1895.0
62,10832764,HOUSE,HOUSE,Ganshoren,50.8784833,4.3179607,Avenue Charles Quint 515,1083,425000,residential_sale,3,26,100.0,0,False,False,True,16.0,True,172.0,100.0,215.0,3.0,False,good,16,Ganshoren,Brussel,1208542,162.4,7442,,4250.0
63,10833082,HOUSE,HOUSE,Braine-l'Alleud,50.683673,4.3686557,122 RUE DE MONT-ST-PONT,1420,470000,residential_sale,3,39,150.0,hyper_equipped,False,False,True,16.0,False,0.0,150.0,123.0,3.0,False,as_new,56,Braine-l'Alleud,Brabant wallon,403599,1097.0,368,Hyper equipped,3133.333333333333
64,10831400,HOUSE,BUNGALOW,Rixensart,50.7114632,4.5321513, Avenue de Mérode 16B,1330,480000,residential_sale,2,32,155.0,semi_equipped,False,False,True,40.0,True,823.0,155.0,823.0,4.0,False,to_be_done_up,41,Rixensart,Brabant wallon,403599,1097.0,368,Semi equipped,3096.7741935483878
65,10832601,HOUSE,HOUSE,Rhode-Saint-Genese,50.7380372,4.3565454,Rue Langeveld 51 ,1640,549000,residential_sale,3,0,218.0,usa_hyper_equipped,False,False,True,30.0,True,150.0,218.0,276.0,3.0,False,just_renovated,83,Sint-Genesius-Rode,Vlaams-Brabant,1146175,2118.0,542,,2518.348623853211
66,10831511,HOUSE,HOUSE,Leefdaal,50.8533452,4.5974686,Mechelsesteenweg 382,3061,625000,residential_sale,6,39,239.0,installed,False,True,True,0.0,True,0.0,239.0,1880.0,4.0,False,to_be_done_up,978,Bertem,Vlaams-Brabant,1146175,2118.0,542,,2615.0627615062763
67,10831236,HOUSE,HOUSE,Woluwe-Saint-Pierre,50.8302914,4.4489793,"Val des Seigneurs, 9a",1150,975000,residential_sale,4,14,195.0,usa_hyper_equipped,False,False,True,15.0,True,300.0,195.0,385.0,3.0,False,as_new,19,Sint-Pieters-Woluwe,Brussel,1208542,162.4,7442,,5000.0
68,10821092,HOUSE,HOUSE,Oupeye,50.7381006,5.610945,Rue de la Wallonie 2A,4682,199000,residential_sale,4,25,130.0,installed,False,False,False,0.0,True,155.0,130.0,350.0,2.0,False,good,1461,Oupeye,Liège,1106992,3857.0,288,,1530.7692307692307
69,10820702,HOUSE,TOWN_HOUSE,Antwerpen Hoboken,51.1783703,4.3718427,"Mechelsesteenweg,157",2660,399900,residential_sale,3,40,189.0,installed,False,False,False,0.0,True,76.0,189.0,140.0,2.0,False,good,188,Antwerpen,Antwerpen,1857986,2876.0,647,,2115.873015873016
70,10821550,HOUSE,MANSION,Nivelles,50.6060499,4.3471441,Place Emile Delalieux 1 ,1400,420000,residential_sale,5,48,250.0,installed,False,False,True,40.0,True,500.0,250.0,770.0,3.0,False,to_renovate,53,Nivelles,Brabant wallon,403599,1097.0,368,,1680.0
71,10821548,HOUSE,MANSION,Seneffe,50.5323981,4.256615,Place Emile Delalieux 1 ,7180,420000,residential_sale,5,48,250.0,installed,False,False,True,40.0,True,500.0,250.0,770.0,3.0,False,to_renovate,521,Seneffe,Hainaut,1196796,3197.0,375,,1680.0
72,10821898,HOUSE,MANSION,Etterbeek,50.838047,4.3872018,Avenue des Mouettes 1,1040,950000,residential_sale,5,40,280.0,hyper_equipped,False,True,False,0.0,True,150.0,280.0,240.0,2.0,False,as_new,5,Etterbeek,Brussel,1208542,162.4,7442,Hyper equipped,3392.8571428571427
73,10828766,HOUSE,HOUSE,Grez-Doiceau,50.7535959,4.6659328,Avenue Fond Jean Rosy 17A,1390,315000,residential_sale,2,24,114.0,semi_equipped,False,False,True,32.0,True,268.0,114.0,370.0,3.0,False,to_renovate,51,Grez-Doiceau,Brabant wallon,403599,1097.0,368,Semi equipped,2763.157894736842
74,10829430,HOUSE,VILLA,Herzele,50.8318042,3.9087755,Grote Markt 35,9550,345000,residential_sale,3,0,200.0,semi_equipped,False,True,True,0.0,False,0.0,200.0,1040.0,4.0,False,to_be_done_up,679,Herzele,Oost-Vlaanderen,1515064,3007.0,504,Semi equipped,1725.0
75,10829708,HOUSE,HOUSE,Lebbeke,51.004432,4.1294795,Dr. Persoonslaan 15 b ,9280,367000,residential_sale,3,41,160.0,installed,False,True,True,0.0,True,0.0,160.0,322.0,2.0,False,to_be_done_up,667,Lebbeke,Oost-Vlaanderen,1515064,3007.0,504,,2293.75
76,10829161,HOUSE,HOUSE,Anderlecht,50.8242952,4.2938847,Avenue des Tournesols 14,1070,445000,residential_sale,4,30,178.0,usa_hyper_equipped,False,False,True,36.0,True,65.0,178.0,149.0,2.0,False,as_new,10,Anderlecht,Brussel,1208542,162.4,7442,,2500.0
77,10833025,APARTMENT,APARTMENT,Harelbeke,50.8741432,3.3101427,Hulstedorp 18,8531,160000,residential_sale,2,0,80.0,0,False,True,False,0.0,False,0.0,80.0,0.0,2.0,False,just_renovated,2528,Harelbeke,West-Vlaanderen,1344241,3813.0,353,,2000.0
78,10831923,APARTMENT,APARTMENT,Anderlecht,50.8282064,4.3075694,Rue Potaerdenberg 31,1070,190000,residential_sale,3,40,89.0,semi_equipped,False,False,True,10.0,False,0.0,89.0,0.0,0.0,False,to_renovate,10,Anderlecht,Brussel,1208542,162.4,7442,Semi equipped,2134.8314606741574
79,10831234,APARTMENT,PENTHOUSE,Woluwe-Saint-Pierre,50.8230596,4.4597326,"Val des Seigneurs, 9a",1150,299000,residential_sale,1,38,78.0,installed,False,False,True,5.0,False,0.0,78.0,0.0,3.0,False,good,19,Sint-Pieters-Woluwe,Brussel,1208542,162.4,7442,,3833.3333333333335
80,10831341,APARTMENT,APARTMENT,Woluwe-Saint-Lambert,50.8557706,4.4253401,Bld. Brand Whitlock 108,1200,370000,residential_sale,2,0,100.0,usa_hyper_equipped,False,False,True,2.0,False,0.0,100.0,0.0,2.0,False,as_new,29,Sint-Lambrechts-Woluwe,Brussel,1208542,162.4,7442,,3700.0
81,10832820,APARTMENT,APARTMENT,Waregem,50.8900878,3.4416249,"Roterijstraat, 202",8790,370000,residential_sale,2,0,135.0,hyper_equipped,False,True,True,20.0,False,0.0,135.0,0.0,0.0,False,good,618,Waregem,West-Vlaanderen,1344241,3813.0,353,Hyper equipped,2740.740740740741
82,10832481,APARTMENT,APARTMENT,Etterbeek,50.837068,4.3980941,"Rue Abbé Cuypers (étage 1), 3 ",1040,395000,residential_sale,1,0,60.0,hyper_equipped,False,False,True,7.0,False,0.0,60.0,0.0,2.0,False,as_new,5,Etterbeek,Brussel,1208542,162.4,7442,Hyper equipped,6583.333333333333
83,10832243,APARTMENT,DUPLEX,Uccle,50.8033425,4.337481,.,1180,495000,residential_sale,2,40,145.0,hyper_equipped,False,False,True,3.0,False,0.0,145.0,0.0,2.0,False,as_new,25,Uccle,Brussel,1208542,162.4,7442,Hyper equipped,3413.793103448276
84,10831233,APARTMENT,APARTMENT,Woluwe-Saint-Lambert,50.8511516,4.4402052,"Val des Seigneurs, 9a",1200,495000,residential_sale,2,32,95.0,usa_hyper_equipped,False,False,True,10.0,False,0.0,95.0,0.0,0.0,False,as_new,29,Sint-Lambrechts-Woluwe,Brussel,1208542,162.4,7442,,5210.526315789473
85,10831831,APARTMENT,LOFT,Forest,50.8198014,4.3265893,Rue Langeveld 51 ,1190,725000,residential_sale,3,110,229.0,usa_hyper_equipped,False,False,True,60.0,False,0.0,229.0,0.0,3.0,False,as_new,27,Forest,Brussel,1208542,162.4,7442,,3165.9388646288207
86,10832628,APARTMENT,APARTMENT,Bruxelles ville,50.8394855,4.3603623,Place du Grand Sablon 35,1000,890000,residential_sale,4,0,185.0,hyper_equipped,False,False,True,11.0,False,0.0,185.0,0.0,2.0,False,as_new,1,Brussel,Brussel,1208542,162.4,7442,Hyper equipped,4810.810810810811
87,10821918,APARTMENT,APARTMENT,Forest,50.8060576,4.313372,Avenue Clémentine 31/4,1190,170000,residential_sale,1,22,48.0,usa_hyper_equipped,False,False,False,0.0,False,0.0,48.0,0.0,2.0,False,good,27,Forest,Brussel,1208542,162.4,7442,,3541.6666666666665
88,10821090,APARTMENT,APARTMENT,Liege,50.6225868,5.5514417,Rue de la Wallonie 2A,4000,174000,residential_sale,2,28,81.0,installed,False,False,True,7.0,False,0.0,81.0,0.0,3.0,False,good,293,Liège,Liège,1106992,3857.0,288,,2148.1481481481483
89,10821525,APARTMENT,APARTMENT,Ougrée,50.5804484,5.5492653,Avenuedes Ardennes 7d,4102,179500,residential_sale,2,22,90.0,installed,False,True,True,7.0,False,0.0,90.0,0.0,4.0,False,as_new,1260,Seraing,Liège,1106992,3857.0,288,,1994.4444444444443
90,10822839,APARTMENT,APARTMENT,Antwerp,51.2017597,4.4634318,,2100,225000,residential_sale,2,35,105.0,hyper_equipped,False,False,True,2.0,False,0.0,105.0,0.0,2.0,False,good,126,Antwerpen,Antwerpen,1857986,2876.0,647,Hyper equipped,2142.8571428571427
91,10821677,APARTMENT,PENTHOUSE,Marche-en-Famenne,50.2294732,5.3346432,Rue Simon 46/2,6900,375000,residential_sale,4,32,199.0,hyper_equipped,False,False,True,35.0,False,0.0,199.0,0.0,3.0,False,to_be_done_up,492,Marche-en-Famenne,Luxembourg,284638,4459.0,63,Hyper equipped,1884.422110552764
92,10820417,APARTMENT,PENTHOUSE,Sint-Agatha-Berchem,50.8619683,4.2844414,De Kleetlaan 4,1082,399000,residential_sale,2,45,105.0,installed,False,True,True,93.0,False,0.0,105.0,0.0,0.0,False,as_new,14,Berchem-Sainte-Agathe,Brussel,1208542,162.4,7442,,3800.0
93,10821879,APARTMENT,APARTMENT,Etterbeek,50.838028,4.402562,,1040,649000,residential_sale,2,46,146.0,hyper_equipped,False,True,True,8.0,False,0.0,146.0,0.0,2.0,False,just_renovated,5,Etterbeek,Brussel,1208542,162.4,7442,Hyper equipped,4445.205479452055
94,10822588,APARTMENT,APARTMENT,Brussels City,50.8435475,4.3900478,Waterloosesteenweg 631,1000,985000,residential_sale,4,0,221.0,hyper_equipped,False,False,False,0.0,False,0.0,221.0,0.0,2.0,False,to_be_done_up,1,Brussel,Brussel,1208542,162.4,7442,Hyper equipped,4457.013574660634
95,10829751,APARTMENT,FLAT_STUDIO,Blankenberge,51.31528,3.12733,Posthoornlaan 2,8370,188000,residential_sale,1,0,51.0,installed,True,True,False,0.0,False,0.0,51.0,0.0,2.0,False,good,571,Blankenberge,West-Vlaanderen,1344241,3813.0,353,,3686.274509803922
96,10829749,APARTMENT,APARTMENT,Schaerbeek,50.8571917,4.3992384,"Avenue des Cerisiers, 212",1030,220000,residential_sale,2,22,68.0,0,False,False,False,0.0,False,0.0,68.0,0.0,2.0,False,good,3,Schaarbeek,Brussel,1208542,162.4,7442,,3235.294117647059
97,10830594,APARTMENT,APARTMENT,Dendermonde,51.0241549,4.1014293,Zuidlaan 2,9200,239000,residential_sale,2,0,93.0,installed,False,True,True,9.0,False,0.0,93.0,0.0,0.0,False,just_renovated,658,Dendermonde,Oost-Vlaanderen,1515064,3007.0,504,,2569.89247311828
98,10829424,APARTMENT,FLAT_STUDIO,Bruxelles,50.8490854,4.3402487,1 Avenue Henri Bourgys,1000,245000,residential_sale,0,36,50.0,installed,True,False,False,0.0,False,0.0,50.0,0.0,2.0,False,as_new,1,Brussel,Brussel,1208542,162.4,7442,,4900.0
99,10718644,APARTMENT,APARTMENT,Middelkerke,51.1866804,2.8127362,Zeedijk 127-128,8430,299000,residential_sale,2,0,81.0,installed,False,True,True,0.0,False,0.0,81.0,0.0,2.0,False,good,576,Middelkerke,West-Vlaanderen,1344241,3813.0,353,,3691.358024691358
100,10830422,APARTMENT,PENTHOUSE,SINT-KATELIJNE-WAVER,51.0676544,4.5771564,Dorp 4A,2861,325000,residential_sale,2,45,98.0,installed,False,True,True,71.0,False,0.0,98.0,0.0,4.0,False,good,948,Sint-Katelijne-Waver,Antwerpen,1857986,2876.0,647,,3316.326530612245
101,10829925,APARTMENT,PENTHOUSE,Woluwe-Saint-Pierre,50.8374868,4.40941,"Val des Seigneurs, 9a",1150,695000,residential_sale,2,47,163.0,hyper_equipped,False,False,True,26.0,False,0.0,163.0,0.0,2.0,False,good,19,Sint-Pieters-Woluwe,Brussel,1208542,162.4,7442,Hyper equipped,4263.803680981595
102,10833835,APARTMENT,FLAT_STUDIO,Machelen Diegem,50.8912925,4.4438662,Leuvensesteenweg 677,1831,213500,residential_sale,1,0,50.0,usa_hyper_equipped,False,False,True,4.0,False,0.0,50.0,0.0,2.0,False,as_new,860,Machelen,Vlaams-Brabant,1146175,2118.0,542,,4270.0
103,10818366,APARTMENT,APARTMENT,Boom,51.0878535,4.3651949,Valkebeekstraat 24,2850,195000,residential_sale,2,0,82.0,semi_equipped,False,True,True,3.0,False,0.0,82.0,0.0,3.0,False,good,196,Boom,Antwerpen,1857986,2876.0,647,Semi equipped,2378.048780487805
104,10817835,APARTMENT,APARTMENT,Evere,50.8819292,4.4044382,Cicerolaan 33,1140,259000,residential_sale,2,31,97.0,installed,False,False,True,0.0,False,0.0,97.0,0.0,2.0,False,good,18,Evere,Brussel,1208542,162.4,7442,,2670.103092783505
105,10818098,APARTMENT,APARTMENT,Woluwe-Saint-Lambert,50.8516804,4.436312,Avenue de Tervueren 446,1200,259000,residential_sale,2,28,83.0,semi_equipped,False,False,True,20.0,False,0.0,83.0,0.0,2.0,False,to_renovate,29,Sint-Lambrechts-Woluwe,Brussel,1208542,162.4,7442,Semi equipped,3120.481927710844
106,10828430,HOUSE,VILLA,Villers l'Eveque,50.7016253,5.4424495,rue des dominicains 4E,4340,625000,residential_sale,4,64,436.0,hyper_equipped,False,False,True,150.0,True,3420.0,436.0,4480.0,4.0,False,good,318,Awans,Liège,1106992,3857.0,288,Hyper equipped,1433.48623853211
107,10829428,HOUSE,COUNTRY_COTTAGE,Herzele,50.8591894,3.8748071,Grote Markt 35,9550,739000,residential_sale,3,0,415.0,semi_equipped,False,True,True,0.0,True,0.0,415.0,2254.0,3.0,False,to_be_done_up,679,Herzele,Oost-Vlaanderen,1515064,3007.0,504,Semi equipped,1780.7228915662652
108,10828625,HOUSE,HOUSE,Woluwe-Saint-Pierre,50.8243084,4.4160636, Avenue de Mérode 16B,1150,865000,residential_sale,4,50,190.0,installed,False,False,True,0.0,True,319.0,190.0,319.0,4.0,False,to_renovate,19,Sint-Pieters-Woluwe,Brussel,1208542,162.4,7442,,4552.631578947368
109,10799689,HOUSE,HOUSE,Kraainem,50.8604444,4.4616667,,1950,1100000,residential_sale,4,49,250.0,installed,False,False,True,30.0,True,510.0,250.0,640.0,4.0,False,as_new,108,Kraainem,Vlaams-Brabant,1146175,2118.0,542,,4400.0
110,10829243,HOUSE,VILLA,Grez-Doiceau,50.7286948,4.6865435,Avenue Louise 523,1390,1495000,residential_sale,5,85,733.0,hyper_equipped,False,True,True,50.0,False,0.0,733.0,2427.0,4.0,True,as_new,51,Grez-Doiceau,Brabant wallon,403599,1097.0,368,Hyper equipped,2039.5634379263304
111,10818318,HOUSE,HOUSE,Ronse,50.7454949,3.5928955,Stationstraat 30,9600,175000,residential_sale,4,0,236.0,installed,False,False,False,0.0,True,75.0,236.0,200.0,2.0,False,to_renovate,681,Ronse,Oost-Vlaanderen,1515064,3007.0,504,,741.5254237288135
112,10819654,HOUSE,HOUSE,VIEUX-WALEFFE,50.6157594,5.202705,Avenuedes Ardennes 7d,4530,299000,residential_sale,3,22,210.0,installed,False,True,True,90.0,True,0.0,210.0,162.0,2.0,False,as_new,336,Villers-le-Bouillet,Liège,1106992,3857.0,288,,1423.809523809524
113,10819803,HOUSE,HOUSE,Bierbeek,50.8269442,4.7790077,Veemarkt 14,3360,548000,residential_sale,3,18,269.0,hyper_equipped,False,False,True,0.0,True,900.0,269.0,4429.0,3.0,False,good,235,Bierbeek,Vlaams-Brabant,1146175,2118.0,542,Hyper equipped,2037.174721189591
114,10745663,HOUSE,EXCEPTIONAL_PROPERTY,Assebroek,51.1937508,3.2559703,Noordzandstraat 66,8310,585000,residential_sale,6,58,275.0,not_installed,False,False,False,0.0,False,0.0,275.0,2139.0,4.0,False,to_renovate,2483,Brugge,West-Vlaanderen,1344241,3813.0,353,Not equipped,2127.2727272727275
115,10792798,HOUSE,HOUSE,Uccle,50.7979839,4.3360684,,1180,595000,residential_sale,5,16,230.0,installed,False,True,True,11.0,True,43.0,230.0,150.0,2.0,False,to_be_done_up,25,Uccle,Brussel,1208542,162.4,7442,,2586.9565217391305
116,10826543,HOUSE,HOUSE,AWIRS,50.6014305,5.4000814,Avenuedes Ardennes 7d,4400,159500,residential_sale,4,26,120.0,semi_equipped,False,True,True,0.0,True,600.0,120.0,785.0,2.0,False,to_renovate,325,Flémalle,Liège,1106992,3857.0,288,Semi equipped,1329.1666666666667
117,10826396,HOUSE,HOUSE,Bouge,50.4741435,4.8818533,Joseph Durieux 151,5004,169000,residential_sale,2,45,83.0,installed,False,True,False,0.0,True,85.0,83.0,166.0,3.0,False,to_be_done_up,1534,Namur,Namur,494325,3675.0,135,,2036.144578313253
118,10826536,HOUSE,HOUSE,Wanze,50.5480394,5.2294906,Avenuedes Ardennes 7d,4520,265000,residential_sale,2,0,125.0,installed,False,True,False,0.0,True,0.0,125.0,470.0,3.0,False,good,335,Wanze,Liège,1106992,3857.0,288,,2120.0
119,10826470,HOUSE,HOUSE,Herstal,50.688301,5.6458264,Rue Arnold Delsupexhe 103,4040,290000,residential_sale,3,50,132.0,0,False,True,True,22.0,True,107.0,132.0,257.0,3.0,False,just_renovated,295,Herstal,Liège,1106992,3857.0,288,,2196.969696969697
120,10825671,HOUSE,HOUSE,Woluwe-Saint-Pierre,50.8321144,4.446522,Avenue de Tervueren 446,1150,1375000,residential_sale,6,42,460.0,hyper_equipped,False,False,True,123.0,True,400.0,460.0,818.0,2.0,False,good,19,Sint-Pieters-Woluwe,Brussel,1208542,162.4,7442,Hyper equipped,2989.1304347826085
121,10831594,HOUSE,HOUSE,Oupeye,50.7359987,5.6045304,Rue de la Wallonie 2A,4682,374000,residential_sale,3,36,135.0,hyper_equipped,False,False,True,67.0,True,377.0,135.0,778.0,4.0,False,as_new,1461,Oupeye,Liège,1106992,3857.0,288,Hyper equipped,2770.3703703703704
122,10832781,HOUSE,EXCEPTIONAL_PROPERTY,Leuven,50.8763065,4.6908503,Dorpsstraat 57,3000,498000,residential_sale,3,25,157.0,hyper_equipped,False,False,True,12.0,True,100.0,157.0,170.0,2.0,True,just_renovated,210,Leuven,Vlaams-Brabant,1146175,2118.0,542,Hyper equipped,3171.9745222929937
123,10815917,HOUSE,HOUSE,Genappe,50.6118318,4.4503302,Grand Place 2,1470,185000,residential_sale,1,25,88.0,semi_equipped,False,False,True,10.0,True,50.0,88.0,148.0,2.0,False,to_be_done_up,66,Genappe,Brabant wallon,403599,1097.0,368,Semi equipped,2102.2727272727275
124,10815601,HOUSE,HOUSE,Zottegem,50.8690893,3.8180325,Hoogstraat 20,9620,189000,residential_sale,3,34,160.0,semi_equipped,False,False,True,15.0,True,50.0,160.0,167.0,2.0,False,good,683,Zottegem,Oost-Vlaanderen,1515064,3007.0,504,Semi equipped,1181.25
125,10815989,HOUSE,BUNGALOW,Ans,50.6797388,5.5199964,Rue de la Wallonie 2A,4432,299000,residential_sale,3,24,126.0,installed,False,False,True,11.0,True,620.0,126.0,984.0,4.0,False,good,1369,Ans,Liège,1106992,3857.0,288,,2373.015873015873
126,10816148,HOUSE,HOUSE,Machelen (vlaams-brabant),50.9094891,4.4331523,200 Hendrik I Lei,1830,449000,residential_sale,4,24,292.0,usa_hyper_equipped,False,False,True,0.0,True,824.0,292.0,955.0,3.0,False,to_renovate,101,Machelen,Vlaams-Brabant,1146175,2118.0,542,,1537.6712328767123
127,10816624,HOUSE,VILLA,Ternat,50.8801245,4.1932152,,1740,595000,residential_sale,5,40,356.0,usa_hyper_equipped,False,False,True,80.0,True,6000.0,356.0,8000.0,4.0,False,as_new,89,Ternat,Vlaams-Brabant,1146175,2118.0,542,,1671.3483146067415
128,10833481,HOUSE,HOUSE,Sint-Agatha-Berchem,50.8604022,4.2858599,Astridlaan 1,1082,645000,residential_sale,4,3558,268.0,usa_hyper_equipped,False,False,True,0.0,True,245.0,268.0,245.0,3.0,False,as_new,14,Berchem-Sainte-Agathe,Brussel,1208542,162.4,7442,,2406.716417910448
129,10833608,HOUSE,VILLA,Hoeilaart,50.7658886,4.4957039,"Val des Seigneurs, 9a",1560,795000,residential_sale,4,29,315.0,hyper_equipped,False,False,True,0.0,True,500.0,315.0,902.0,4.0,False,as_new,77,Hoeilaart,Vlaams-Brabant,1146175,2118.0,542,Hyper equipped,2523.809523809524
130,10813096,HOUSE,HOUSE,Dendermonde,51.0185388,4.1217734,Hoogstraat 20,9200,275000,residential_sale,4,32,163.0,hyper_equipped,False,False,True,0.0,True,50.0,163.0,134.0,2.0,False,good,658,Dendermonde,Oost-Vlaanderen,1515064,3007.0,504,Hyper equipped,1687.116564417178
131,10813103,HOUSE,HOUSE,Herzele,50.8866609,3.8839725,Hoogstraat 20,9550,295000,residential_sale,3,35,150.0,installed,False,False,True,0.0,False,0.0,150.0,247.0,2.0,False,as_new,679,Herzele,Oost-Vlaanderen,1515064,3007.0,504,,1966.6666666666667
132,10813900,HOUSE,HOUSE,Wanze,50.5321278,5.218958,Avenuedes Ardennes 7d,4520,299500,residential_sale,4,34,133.0,installed,False,True,True,25.0,True,400.0,133.0,503.0,4.0,False,as_new,335,Wanze,Liège,1106992,3857.0,288,,2251.87969924812
133,10814710,HOUSE,HOUSE,Leuven Heverlee,50.8507497,4.6943676,Kardinaal Mercierlaan 81,3001,584000,residential_sale,7,50,243.0,installed,False,False,True,12.0,True,350.0,243.0,826.0,4.0,False,to_be_done_up,963,Leuven,Vlaams-Brabant,1146175,2118.0,542,,2403.292181069959
134,10813472,HOUSE,APARTMENT_BLOCK,Jette,50.8768037,4.332788,av. de la Floride 77,1090,1995000,residential_sale,14,0,850.0,hyper_equipped,False,False,True,15.0,True,100.0,850.0,260.0,2.0,False,good,17,Jette,Brussel,1208542,162.4,7442,Hyper equipped,2347.058823529412
135,10818422,APARTMENT,PENTHOUSE,Ninove,50.8340218,4.0182725,Burchtstraat 12,9400,370000,residential_sale,2,49,140.0,hyper_equipped,False,False,True,64.0,False,0.0,140.0,0.0,0.0,False,good,672,Ninove,Oost-Vlaanderen,1515064,3007.0,504,Hyper equipped,2642.8571428571427
136,10825718,APARTMENT,FLAT_STUDIO,Etterbeek,50.8392494,4.4017108,Rue Abbé Cuypers 3,1040,180000,residential_sale,0,14,29.0,semi_equipped,False,False,False,0.0,False,0.0,29.0,0.0,0.0,False,just_renovated,5,Etterbeek,Brussel,1208542,162.4,7442,Semi equipped,6206.896551724138
137,10825967,APARTMENT,APARTMENT,Forest,50.817499,4.3458466," Boulevard du Souverain, 254 ",1190,325000,residential_sale,2,30,90.0,hyper_equipped,True,False,True,6.0,False,0.0,90.0,0.0,2.0,False,good,27,Forest,Brussel,1208542,162.4,7442,Hyper equipped,3611.1111111111113
138,10827761,APARTMENT,APARTMENT,Woluwe-Saint-Lambert,50.855576,4.4292398,1 Avenue Henri Bourgys,1200,420000,residential_sale,2,32,97.0,hyper_equipped,False,False,True,7.0,False,0.0,97.0,0.0,4.0,False,as_new,29,Sint-Lambrechts-Woluwe,Brussel,1208542,162.4,7442,Hyper equipped,4329.896907216495
139,10825615,APARTMENT,APARTMENT,Deinze,50.9787655,3.5337378,Sint-Denijslaan 1,9800,625000,residential_sale,3,92,246.0,usa_hyper_equipped,False,False,True,27.0,False,0.0,246.0,0.0,4.0,False,good,694,Deinze,Oost-Vlaanderen,1515064,3007.0,504,,2540.650406504065
140,10832072,APARTMENT,PENTHOUSE,Uccle,50.7750977,4.3815923,"Avenue Delleur, 8",1180,1895000,residential_sale,3,80,287.0,hyper_equipped,False,False,True,225.0,False,0.0,287.0,0.0,2.0,True,as_new,25,Uccle,Brussel,1208542,162.4,7442,Hyper equipped,6602.7874564459935
141,10714414,APARTMENT,APARTMENT,Tienen,50.8085041,4.9354062,Veemarkt 14,3300,174000,residential_sale,2,30,114.0,installed,False,False,True,12.0,False,0.0,114.0,0.0,2.0,False,to_be_done_up,231,Tienen,Vlaams-Brabant,1146175,2118.0,542,,1526.3157894736842
142,10816751,APARTMENT,APARTMENT,Jette,50.8827353,4.3239098,Rue Potaerdenberg 31,1090,190000,residential_sale,1,0,65.0,usa_installed,False,False,True,4.0,False,0.0,65.0,0.0,0.0,False,good,17,Jette,Brussel,1208542,162.4,7442,Equipped,2923.076923076923
143,10815611,APARTMENT,APARTMENT,Wetteren,51.0007927,3.8805815,Hoogstraat 20,9230,195000,residential_sale,2,16,67.0,usa_installed,False,False,True,8.0,False,0.0,67.0,0.0,3.0,False,good,661,Wetteren,Oost-Vlaanderen,1515064,3007.0,504,Equipped,2910.4477611940297
144,10816804,APARTMENT,APARTMENT,Arlon,49.6776155,5.7967202,Avenue de Mersch 67,6700,209000,residential_sale,1,30,78.0,semi_equipped,False,False,False,0.0,False,0.0,78.0,0.0,0.0,False,good,468,Arlon,Luxembourg,284638,4459.0,63,Semi equipped,2679.48717948718
145,10816434,APARTMENT,APARTMENT,Brussels City,50.8424125,4.3509937,Vismarkt 10 c,1000,215000,residential_sale,1,24,44.0,installed,True,True,True,1.0,False,0.0,44.0,0.0,2.0,False,good,1,Brussel,Brussel,1208542,162.4,7442,,4886.363636363636
146,10815607,APARTMENT,APARTMENT,Wetteren,51.0007927,3.8805815,Hoogstraat 20,9230,219000,residential_sale,2,16,67.0,usa_installed,False,False,True,8.0,False,0.0,67.0,0.0,3.0,False,good,661,Wetteren,Oost-Vlaanderen,1515064,3007.0,504,Equipped,3268.6567164179105
147,10817220,APARTMENT,APARTMENT,Bruxelles,50.844329,4.3442565,Avenue du Pesage 10,1000,249000,residential_sale,1,25,60.0,usa_hyper_equipped,False,True,False,0.0,False,0.0,60.0,0.0,2.0,False,as_new,1,Brussel,Brussel,1208542,162.4,7442,,4150.0
148,10825161,APARTMENT,APARTMENT,Evere,50.8588066,4.4118064,,1140,299000,residential_sale,2,0,97.0,installed,False,False,True,5.0,False,0.0,97.0,0.0,0.0,False,as_new,18,Evere,Brussel,1208542,162.4,7442,,3082.474226804124
149,10824941,APARTMENT,APARTMENT,Brussel,50.8761989,4.360542,,1020,319000,residential_sale,1,0,91.0,hyper_equipped,False,False,True,10.0,False,0.0,91.0,0.0,4.0,False,just_renovated,711,Brussel,Brussel,1208542,162.4,7442,Hyper equipped,3505.4945054945056
150,10830350,APARTMENT,APARTMENT,Jodoigne,50.7230201,4.8632825,Chaussee de Charleroi 59 B,1370,225000,residential_sale,2,28,73.0,semi_equipped,False,True,True,5.0,False,0.0,73.0,0.0,2.0,False,good,48,Jodoigne,Brabant wallon,403599,1097.0,368,Semi equipped,3082.1917808219177
151,10830601,APARTMENT,APARTMENT,Zeebrugge,51.3286805,3.1828,Komvest 58,8380,245000,residential_sale,2,0,75.0,installed,False,True,False,0.0,False,0.0,75.0,0.0,2.0,False,good,2494,Brugge,West-Vlaanderen,1344241,3813.0,353,,3266.6666666666665
152,10813998,APARTMENT,APARTMENT,Anderlecht,50.8275308,4.2863509,Rue Potaerdenberg 31,1070,189000,residential_sale,2,28,82.0,semi_equipped,False,False,True,17.0,False,0.0,82.0,0.0,0.0,False,to_renovate,10,Anderlecht,Brussel,1208542,162.4,7442,Semi equipped,2304.878048780488
153,10513885,APARTMENT,APARTMENT,Sint-Jans-Molenbeek,50.8530849,4.300963,Astridlaan 1,1080,269000,residential_sale,2,39,95.0,installed,False,False,True,0.0,False,0.0,95.0,0.0,0.0,False,good,11,Molenbeek-Saint-Jean,Brussel,1208542,162.4,7442,,2831.5789473684213
154,10814823,APARTMENT,PENTHOUSE,Geraardsbergen,50.7741011,3.8738888,Grote Markt 35,9500,289000,residential_sale,2,0,115.0,installed,False,True,True,19.0,False,0.0,115.0,0.0,2.0,False,good,676,Geraardsbergen,Oost-Vlaanderen,1515064,3007.0,504,,2513.043478260869
155,10813812,APARTMENT,APARTMENT,Brussels City,50.8400258,4.3822785,Avenue René Gobert 26,1000,595000,residential_sale,1,50,98.0,hyper_equipped,False,False,True,60.0,True,0.0,98.0,0.0,3.0,False,as_new,1,Brussel,Brussel,1208542,162.4,7442,Hyper equipped,6071.428571428572
156,10813258,APARTMENT,PENTHOUSE,Woluwe-Saint-Pierre,50.8306767,4.4608274,"Val des Seigneurs, 9a",1150,699000,residential_sale,2,46,144.0,usa_hyper_equipped,False,False,True,19.0,False,0.0,144.0,0.0,3.0,False,as_new,19,Sint-Pieters-Woluwe,Brussel,1208542,162.4,7442,,4854.166666666667
157,10833298,APARTMENT,FLAT_STUDIO,Koekelberg,50.8616195,4.316032,Rue Archimède 17 ,1081,145000,residential_sale,0,0,40.0,0,False,False,True,3.0,False,0.0,40.0,0.0,3.0,False,to_be_done_up,13,Koekelberg,Brussel,1208542,162.4,7442,,3625.0
158,10833496,APARTMENT,APARTMENT,Evere,50.8735908,4.40354,"Avenue des Cerisiers, 212",1140,235000,residential_sale,2,28,80.0,0,False,False,True,10.0,False,0.0,80.0,0.0,2.0,False,to_renovate,18,Evere,Brussel,1208542,162.4,7442,,2937.5
159,10770726,APARTMENT,PENTHOUSE,Antwerp,51.2256056,4.4002069,Sint-Katelijnevest 24,2000,1850000,residential_sale,3,0,202.0,0,False,False,True,0.0,False,0.0,202.0,0.0,4.0,False,as_new,111,Antwerpen,Antwerpen,1857986,2876.0,647,,9158.415841584158
160,10823352,APARTMENT,APARTMENT,Schaerbeek,50.8571257,4.3904369,"Avenue des Cerisiers, 212",1030,199000,residential_sale,1,43,74.0,installed,False,False,False,0.0,False,0.0,74.0,0.0,2.0,False,to_be_done_up,3,Schaarbeek,Brussel,1208542,162.4,7442,,2689.189189189189
161,10823345,HOUSE,HOUSE,Liège Wandre,50.6596144,5.651292,Grand rue 191,4020,229000,residential_sale,3,0,120.0,semi_equipped,False,False,True,32.0,True,250.0,120.0,503.0,3.0,False,to_be_done_up,1246,Liège,Liège,1106992,3857.0,288,Semi equipped,1908.3333333333333
162,10824050,HOUSE,VILLA,Fosses-la-Ville,50.385579,4.6590813,122 RUE DE MONT-ST-PONT,5070,450000,residential_sale,4,62,240.0,hyper_equipped,False,False,True,0.0,False,0.0,240.0,837.0,4.0,False,as_new,401,Fosses-la-Ville,Namur,494325,3675.0,135,Hyper equipped,1875.0
163,10594932,HOUSE,VILLA,Esneux,50.5388555,5.5886874,Begijnenweide 55,4130,496000,residential_sale,4,0,260.0,usa_installed,False,True,True,60.0,True,3133.0,260.0,3133.0,4.0,False,as_new,299,Esneux,Liège,1106992,3857.0,288,Equipped,1907.692307692308
164,10824267,HOUSE,VILLA,Flobecq,50.7440085,3.7487555,Grote Markt 35,7880,715000,residential_sale,3,0,404.0,installed,False,True,True,0.0,False,0.0,404.0,3344.0,4.0,False,good,556,Flobecq,Hainaut,1196796,3197.0,375,,1769.8019801980197
165,10832446,HOUSE,HOUSE,Bièvre,49.9502502,5.0631645,,5555,290000,residential_sale,4,0,267.0,usa_installed,False,False,True,20.0,True,800.0,267.0,950.0,3.0,False,good,422,Bièvre,Namur,494325,3675.0,135,Equipped,1086.1423220973784
166,10831858,HOUSE,HOUSE,Wezembeek-Oppem,50.858998,4.4866633,Avenue de Tervueren 446,1970,650000,residential_sale,4,33,200.0,hyper_equipped,False,False,True,0.0,True,435.0,200.0,535.0,4.0,False,to_be_done_up,109,Wezembeek-Oppem,Vlaams-Brabant,1146175,2118.0,542,Hyper equipped,3250.0
167,10831380,HOUSE,VILLA,Seraing Boncelles,50.5634687,5.5264741,Rue Bonne Fortune 9,4100,890000,residential_sale,4,0,315.0,installed,False,False,True,100.0,True,6541.0,315.0,6541.0,4.0,True,good,297,Seraing,Liège,1106992,3857.0,288,,2825.396825396825
168,10831130,HOUSE,HOUSE,Etterbeek,50.8310085,4.4100897,Avenue Baron Albert d'Huart 130,1040,1495000,residential_sale,6,63,275.0,hyper_equipped,False,False,True,40.0,True,300.0,275.0,632.0,3.0,False,to_be_done_up,5,Etterbeek,Brussel,1208542,162.4,7442,Hyper equipped,5436.363636363636
169,10832636,HOUSE,VILLA,Waterloo,50.7123598,4.4001295,Chaussée de Tervuren 186,1410,1495000,residential_sale,4,80,425.0,installed,False,True,True,0.0,True,0.0,425.0,3336.0,4.0,True,good,55,Waterloo,Brabant wallon,403599,1097.0,368,,3517.6470588235293
170,10831768,HOUSE,VILLA,Dilbeek,50.8572288,4.2413289,Bld. Brand Whitlock 108,1700,1500000,residential_sale,4,0,450.0,usa_hyper_equipped,False,False,True,100.0,True,1000.0,450.0,1000.0,4.0,False,as_new,87,Dilbeek,Vlaams-Brabant,1146175,2118.0,542,,3333.333333333333
171,10810366,HOUSE,HOUSE,Vresse-sur-Semois,49.8109893,4.8699879,rue des Corettes,5550,129000,residential_sale,3,0,124.0,semi_equipped,False,False,True,5.0,False,0.0,124.0,127.0,3.0,False,good,421,Vresse-sur-Semois,Namur,494325,3675.0,135,Semi equipped,1040.3225806451612
172,10810459,HOUSE,HOUSE,Hotton,50.28053,5.4390587,Rue Simon 46/2,6990,248000,residential_sale,6,37,290.0,installed,False,False,True,30.0,True,1230.0,290.0,1230.0,3.0,False,good,502,Hotton,Luxembourg,284638,4459.0,63,,855.1724137931035
173,10812017,HOUSE,HOUSE,Linter Wommersom,50.8193579,5.0248183,Veemarkt 14,3350,329000,residential_sale,3,36,151.0,installed,False,False,True,30.0,True,3200.0,151.0,3537.0,4.0,False,to_be_done_up,234,Linter,Vlaams-Brabant,1146175,2118.0,542,,2178.807947019868
174,10620375,HOUSE,HOUSE,ETHE,49.5807579,5.5686131,Rue Dr Hustin 32,6760,120000,residential_sale,4,0,140.0,semi_equipped,False,True,False,0.0,True,0.0,140.0,186.0,3.0,False,to_renovate,476,Virton,Luxembourg,284638,4459.0,63,Semi equipped,857.1428571428571
175,10822845,HOUSE,HOUSE,SINT-GILLIS-BIJ-DENDERMONDE,51.0174597,4.1126682,Zuidlaan 2,9200,199000,residential_sale,3,0,118.0,semi_equipped,False,True,False,0.0,True,57.0,118.0,127.0,2.0,False,to_renovate,658,Dendermonde,Oost-Vlaanderen,1515064,3007.0,504,Semi equipped,1686.4406779661017
176,10822353,HOUSE,HOUSE,Schaerbeek,50.8761038,4.3770054,.,1030,399000,residential_sale,6,45,230.0,not_installed,False,False,True,10.0,True,30.0,230.0,105.0,2.0,False,to_renovate,3,Schaarbeek,Brussel,1208542,162.4,7442,Not equipped,1734.7826086956522
177,10822720,HOUSE,VILLA,VARSENARE,51.1914127,3.1332047,Gistelsteenweg 88,8490,665000,residential_sale,3,0,268.0,semi_equipped,False,True,True,40.0,False,0.0,268.0,692.0,4.0,False,good,581,Jabbeke,West-Vlaanderen,1344241,3813.0,353,Semi equipped,2481.343283582089
178,10822291,HOUSE,VILLA,Uccle,50.7709666,4.3770844,Avenue Louise 404a,1180,1590000,residential_sale,5,73,608.0,installed,False,True,True,0.0,True,0.0,608.0,2661.0,4.0,False,to_renovate,25,Uccle,Brussel,1208542,162.4,7442,,2615.1315789473683
179,10828446,HOUSE,TOWN_HOUSE,Wezembeek-Oppem,50.8432201,4.4849679,"Val des Seigneurs, 9a",1970,595000,residential_sale,3,20,140.0,hyper_equipped,False,False,True,30.0,True,110.0,140.0,251.0,2.0,False,good,109,Wezembeek-Oppem,Vlaams-Brabant,1146175,2118.0,542,Hyper equipped,4250.0
180,10829244,HOUSE,VILLA,Waterloo,50.7047021,4.4150871,Chaussée de Tervuren 186,1410,645000,residential_sale,4,33,150.0,hyper_equipped,False,False,True,0.0,True,0.0,150.0,1454.0,4.0,False,good,55,Waterloo,Brabant wallon,403599,1097.0,368,Hyper equipped,4300.0
181,10828504,HOUSE,EXCEPTIONAL_PROPERTY,Woluwe-Saint-Pierre,50.8236515,4.4547801,Bld. Brand Whitlock 108,1150,2395000,residential_sale,6,0,450.0,hyper_equipped,False,False,True,50.0,True,1400.0,450.0,1600.0,4.0,False,as_new,19,Sint-Pieters-Woluwe,Brussel,1208542,162.4,7442,Hyper equipped,5322.222222222223
182,10834218,HOUSE,HOUSE,Braine-l'Alleud,50.7270778,4.3269818,Rue Alphonse Renard 1,1420,1295000,residential_sale,5,75,400.0,hyper_equipped,False,True,True,100.0,True,0.0,400.0,3300.0,4.0,True,good,56,Braine-l'Alleud,Brabant wallon,403599,1097.0,368,Hyper equipped,3237.5
183,10809991,HOUSE,VILLA,Grimbergen,50.9058692,4.3488638,,1853,748000,residential_sale,5,53,398.0,usa_installed,False,True,True,45.0,True,550.0,398.0,693.0,4.0,False,good,865,Grimbergen,Vlaams-Brabant,1146175,2118.0,542,Equipped,1879.3969849246232
184,10817871,HOUSE,HOUSE,Trooz,50.5669357,5.6903297,Grand rue 191,4870,239000,residential_sale,3,26,150.0,semi_equipped,False,False,True,25.0,True,150.0,150.0,321.0,3.0,False,good,382,Trooz,Liège,1106992,3857.0,288,Semi equipped,1593.3333333333333
185,10819796,HOUSE,HOUSE,Paliseul,49.9649014,5.1843359,Rue du Commerce 25,6852,285000,residential_sale,3,0,114.0,installed,False,True,True,0.0,True,0.0,114.0,638.0,4.0,False,as_new,2091,Paliseul,Luxembourg,284638,4459.0,63,,2500.0
186,10818772,HOUSE,HOUSE,Puurs,51.0769116,4.2724541,,2870,475000,residential_sale,4,0,320.0,0,False,False,True,60.0,True,200.0,320.0,470.0,3.0,False,good,198,Puurs-Sint-Amands,Antwerpen,1857986,2876.0,647,,1484.375
187,10817991,HOUSE,EXCEPTIONAL_PROPERTY,Berchem,51.1974612,4.4154003,Sint-Katelijnevest 24,2600,1995000,residential_sale,2,0,382.0,usa_hyper_equipped,False,False,False,0.0,True,160.0,382.0,450.0,3.0,False,good,179,Antwerpen,Antwerpen,1857986,2876.0,647,,5222.513089005236
188,10823767,HOUSE,HOUSE,Ninove,50.82824,3.9317539,Grotestraat 28,9400,395000,residential_sale,3,36,190.0,installed,False,False,True,0.0,True,760.0,190.0,1405.0,4.0,False,good,672,Ninove,Oost-Vlaanderen,1515064,3007.0,504,,2078.9473684210525
189,10824022,HOUSE,HOUSE,Uccle,50.7997071,4.3414644,Rue Royale 178,1180,730000,residential_sale,4,25,260.0,usa_hyper_equipped,False,False,True,12.0,False,0.0,260.0,125.0,2.0,False,good,25,Uccle,Brussel,1208542,162.4,7442,,2807.692307692308
190,10824028,HOUSE,APARTMENT_BLOCK,Saint-Josse-ten-Noode,50.8571511,4.3629949,Rue Royale 178,1210,950000,residential_sale,7,30,500.0,semi_equipped,False,False,True,3.0,True,6.0,500.0,266.0,3.0,False,to_renovate,31,Saint-Josse-ten-Noode,Brussel,1208542,162.4,7442,Semi equipped,1900.0
191,10823458,APARTMENT,DUPLEX,Jemeppe-sur-Sambre,50.4625386,4.6567775,Rue Félix Protin 1,5190,250000,residential_sale,2,30,90.0,0,False,False,True,0.0,True,100.0,90.0,0.0,3.0,False,as_new,406,Jemeppe-sur-Sambre,Namur,494325,3675.0,135,,2777.777777777778
192,10823456,APARTMENT,APARTMENT,Ganshoren,50.8687699,4.3225819,"Chaussée de la libération, 3",1083,399000,residential_sale,3,31,190.0,installed,False,True,True,35.0,True,500.0,190.0,0.0,2.0,False,to_be_done_up,16,Ganshoren,Brussel,1208542,162.4,7442,,2100.0
193,10826247,APARTMENT,PENTHOUSE,Harelbeke,50.86251,3.31988,"Roterijstraat, 202",8530,860000,residential_sale,3,0,175.0,installed,False,True,False,0.0,False,0.0,175.0,0.0,0.0,False,as_new,585,Harelbeke,West-Vlaanderen,1344241,3813.0,353,,4914.285714285715
194,10811863,APARTMENT,APARTMENT,Paliseul Maissin,49.9658649,5.1804098,Rue Simon 46/2,6852,119000,residential_sale,2,47,105.0,installed,False,False,False,0.0,False,0.0,105.0,0.0,3.0,False,good,2091,Paliseul,Luxembourg,284638,4459.0,63,,1133.3333333333333
195,10811866,APARTMENT,APARTMENT,Paliseul Maissin,49.9654078,5.1805269,Rue Simon 46/2,6852,129000,residential_sale,2,33,113.0,usa_semi_equipped,False,False,False,0.0,False,0.0,113.0,0.0,3.0,False,good,2091,Paliseul,Luxembourg,284638,4459.0,63,Semi equipped,1141.5929203539822
196,10811865,APARTMENT,APARTMENT,Paliseul Maissin,49.9656492,5.1801804,Rue Simon 46/2,6852,129000,residential_sale,2,36,108.0,semi_equipped,False,False,False,0.0,False,0.0,108.0,0.0,2.0,False,good,2091,Paliseul,Luxembourg,284638,4459.0,63,Semi equipped,1194.4444444444443
197,10811864,APARTMENT,APARTMENT,Paliseul Maissin,49.9652811,5.1798582,Rue Simon 46/2,6852,134000,residential_sale,2,42,119.0,installed,False,False,False,0.0,False,0.0,119.0,0.0,3.0,False,good,2091,Paliseul,Luxembourg,284638,4459.0,63,,1126.0504201680671
198,10811315,APARTMENT,APARTMENT,Ronse,50.7410524,3.6172256,Abeelstraat 9A,9600,179000,residential_sale,1,0,73.0,installed,False,True,True,0.0,False,0.0,73.0,0.0,2.0,False,as_new,681,Ronse,Oost-Vlaanderen,1515064,3007.0,504,,2452.054794520548
199,10810460,APARTMENT,DUPLEX,Marche-en-Famenne,50.2304511,5.3432225,Rue Simon 46/2,6900,218500,residential_sale,3,29,129.0,semi_equipped,False,False,True,15.0,False,0.0,129.0,0.0,3.0,False,as_new,492,Marche-en-Famenne,Luxembourg,284638,4459.0,63,Semi equipped,1693.7984496124031
200,10811493,APARTMENT,APARTMENT,Bruxelles,50.8539965,4.3520682,,1000,430000,residential_sale,2,0,100.0,hyper_equipped,False,False,True,10.0,False,0.0,100.0,0.0,2.0,False,as_new,1,Brussel,Brussel,1208542,162.4,7442,Hyper equipped,4300.0
201,10831772,APARTMENT,APARTMENT,Huy,50.5198579,5.2354282,Avenue du Condroz 1/0,4500,249000,residential_sale,3,26,145.0,0,False,False,True,0.0,False,0.0,145.0,0.0,4.0,False,good,333,Huy,Liège,1106992,3857.0,288,,1717.2413793103449
202,10831946,APARTMENT,APARTMENT,Louise (Bruxelles),50.8003581,4.3905754,Place du Châtelain 35,1000,745000,residential_sale,3,0,164.0,0,False,False,True,33.0,False,0.0,164.0,0.0,4.0,False,good,1,Brussel,Brussel,1208542,162.4,7442,,4542.682926829269
203,10821614,APARTMENT,APARTMENT,Nieuwpoort,51.1496345,2.7199256,Albert I Laan 229,8620,265000,residential_sale,1,22,40.0,semi_equipped,False,True,True,4.0,False,0.0,40.0,0.0,2.0,False,good,596,Nieuwpoort,West-Vlaanderen,1344241,3813.0,353,Semi equipped,6625.0
204,10820711,APARTMENT,PENTHOUSE,Anderlecht,50.8477345,4.3043983,Rue Potaerdenberg 31,1070,285000,residential_sale,2,0,90.0,usa_hyper_equipped,False,False,True,0.0,False,0.0,90.0,0.0,2.0,False,as_new,10,Anderlecht,Brussel,1208542,162.4,7442,,3166.6666666666665
205,10821044,APARTMENT,APARTMENT,Lasne,50.7136729,4.4443919,Avenue Reine Astrid 215,1380,285000,residential_sale,1,27,61.0,usa_hyper_equipped,False,False,True,5.0,False,0.0,61.0,0.0,0.0,False,as_new,50,Lasne,Brabant wallon,403599,1097.0,368,,4672.131147540984
206,10820552,APARTMENT,APARTMENT,Woluwe-Saint-Lambert,50.8434928,4.4160267,"Avenue des Cerisiers, 212",1200,325000,residential_sale,2,27,93.0,installed,False,False,True,2.0,False,0.0,93.0,0.0,0.0,False,good,29,Sint-Lambrechts-Woluwe,Brussel,1208542,162.4,7442,,3494.6236559139784
207,10822126,APARTMENT,APARTMENT,Bruxelles,50.8467365,4.3860498,av. de la Floride 77,1000,395000,residential_sale,2,31,102.0,hyper_equipped,True,False,True,6.0,False,0.0,102.0,0.0,0.0,False,as_new,1,Brussel,Brussel,1208542,162.4,7442,Hyper equipped,3872.549019607843
208,10820457,APARTMENT,APARTMENT,Knokke,51.3482789,3.2858464,Lippenslaan 201,8300,995000,residential_sale,3,0,140.0,usa_installed,False,False,True,0.0,False,0.0,140.0,0.0,2.0,False,as_new,569,Knokke-Heist,West-Vlaanderen,1344241,3813.0,353,Equipped,7107.142857142857
209,10810207,APARTMENT,APARTMENT,Ixelles,50.833507,4.3636834,,1050,445000,residential_sale,1,17,76.0,hyper_equipped,False,False,True,10.0,False,0.0,76.0,0.0,2.0,False,as_new,6,Elsene,Brussel,1208542,162.4,7442,Hyper equipped,5855.263157894737
210,10810161,APARTMENT,APARTMENT,Knokke-Heist,51.3439184,3.2855955,"Koningslaan, 131",8300,589000,residential_sale,3,35,78.0,installed,True,False,True,6.0,False,0.0,78.0,0.0,2.0,False,as_new,569,Knokke-Heist,West-Vlaanderen,1344241,3813.0,353,,7551.282051282052
211,10829977,APARTMENT,APARTMENT,LIEGE,50.6375322,5.5673177,Rue de l'Yser 425,4000,185000,residential_sale,2,0,90.0,0,False,False,True,0.0,False,0.0,90.0,0.0,2.0,False,good,293,Liège,Liège,1106992,3857.0,288,,2055.555555555556
212,10828388,APARTMENT,APARTMENT,Molenbeek-Saint-Jean,50.8663167,4.3410145,Rue Franklin  90,1080,210000,residential_sale,2,18,103.0,hyper_equipped,False,False,False,0.0,False,0.0,103.0,0.0,3.0,False,as_new,11,Molenbeek-Saint-Jean,Brussel,1208542,162.4,7442,Hyper equipped,2038.8349514563104
213,10828578,APARTMENT,APARTMENT,Herent,50.9043216,4.677461,Mechelsesteenweg 382,3020,389000,residential_sale,2,0,102.0,0,False,True,False,0.0,False,0.0,102.0,0.0,2.0,False,good,212,Herent,Vlaams-Brabant,1146175,2118.0,542,,3813.725490196078
214,10708441,APARTMENT,APARTMENT,Bruxelles,50.8458342,4.3542055,,1000,225000,residential_sale,1,0,45.0,hyper_equipped,True,False,False,0.0,False,0.0,45.0,0.0,2.0,False,just_renovated,1,Brussel,Brussel,1208542,162.4,7442,Hyper equipped,5000.0
215,10418173,APARTMENT,GROUND_FLOOR,Uccle,50.8035499,4.3691201,Montagne de Saint-Job 100,1180,660000,residential_sale,3,60,155.0,hyper_equipped,False,False,True,20.0,True,810.0,155.0,0.0,4.0,False,good,25,Uccle,Brussel,1208542,162.4,7442,Hyper equipped,4258.064516129032
216,10826707,HOUSE,HOUSE,Waterloo,50.7211,4.39014,Chaussée de Tervuren 186,1410,715000,residential_sale,4,48,200.0,hyper_equipped,False,True,True,0.0,True,0.0,200.0,1488.0,3.0,False,as_new,55,Waterloo,Brabant wallon,403599,1097.0,368,Hyper equipped,3575.0
217,10826215,HOUSE,VILLA,HULSTE,50.8837172,3.2954473,Plein 16,8531,895000,residential_sale,5,0,450.0,hyper_equipped,False,True,True,0.0,False,0.0,450.0,1336.0,4.0,False,as_new,2528,Harelbeke,West-Vlaanderen,1344241,3813.0,353,Hyper equipped,1988.888888888889
218,10831612,HOUSE,HOUSE,Seraing,50.5995112,5.5343819,Rue J. Wettinck 49,4102,154000,residential_sale,4,0,116.0,usa_installed,False,False,True,18.0,True,125.0,116.0,225.0,2.0,False,good,1260,Seraing,Liège,1106992,3857.0,288,Equipped,1327.5862068965516
219,10832557,HOUSE,HOUSE,Denderleeuw,50.8969641,4.0438205,,9473,265000,residential_sale,3,14,155.0,0,False,False,True,50.0,True,700.0,155.0,810.0,2.0,False,to_renovate,2753,Denderleeuw,Oost-Vlaanderen,1515064,3007.0,504,,1709.6774193548388
220,10831507,HOUSE,HOUSE,Boom,51.0853704,4.3641769,"Mechelsesteenweg,157",2850,299900,residential_sale,2,40,206.0,installed,False,False,True,10.0,False,0.0,206.0,60.0,2.0,False,good,196,Boom,Antwerpen,1857986,2876.0,647,,1455.8252427184466
221,10831392,HOUSE,HOUSE,Kraainem,50.8588704,4.4626803,"Avenue des Cerisiers, 212",1950,399500,residential_sale,3,30,167.0,not_installed,False,False,True,14.0,True,310.0,167.0,418.0,3.0,False,to_renovate,108,Kraainem,Vlaams-Brabant,1146175,2118.0,542,Not equipped,2392.215568862276
222,10831394,HOUSE,HOUSE,Wezembeek-Oppem,50.8368231,4.4797352,"Avenue des Cerisiers, 212",1970,750000,residential_sale,6,48,321.0,installed,False,False,True,10.0,True,269.0,321.0,368.0,2.0,False,good,109,Wezembeek-Oppem,Vlaams-Brabant,1146175,2118.0,542,,2336.448598130841
223,10832801,HOUSE,EXCEPTIONAL_PROPERTY,Bonheiden,51.008264,4.564159,Oude Schrieksebaan 20,2820,965000,residential_sale,6,0,493.0,installed,False,True,True,112.0,True,0.0,493.0,7611.0,4.0,False,just_renovated,192,Bonheiden,Antwerpen,1857986,2876.0,647,,1957.403651115619
224,10832507,HOUSE,MANSION,Uccle,50.8058158,4.3437414,Rue Alphonse Renard 1,1180,1550000,residential_sale,4,37,370.0,installed,False,False,True,0.0,True,0.0,370.0,215.0,2.0,False,as_new,25,Uccle,Brussel,1208542,162.4,7442,,4189.189189189189
225,10808449,HOUSE,HOUSE,Vilvoorde,50.9156403,4.3719981,Av.de la Brise 46,1800,329000,residential_sale,3,27,115.0,hyper_equipped,False,False,True,10.0,True,76.0,115.0,187.0,2.0,False,to_renovate,98,Vilvoorde,Vlaams-Brabant,1146175,2118.0,542,Hyper equipped,2860.8695652173915
226,10808504,HOUSE,HOUSE,Ellezelles,50.727121,3.6521856,Stationstraat 30,7890,412000,residential_sale,3,22,157.0,installed,False,False,True,20.0,True,1030.0,157.0,1760.0,4.0,False,good,558,Ellezelles,Hainaut,1196796,3197.0,375,,2624.203821656051
227,10808502,HOUSE,HOUSE,Ronse,50.7496203,3.5928011,Stationstraat 30,9600,425000,residential_sale,5,0,410.0,hyper_equipped,False,False,True,46.0,True,101.0,410.0,360.0,2.0,False,as_new,681,Ronse,Oost-Vlaanderen,1515064,3007.0,504,Hyper equipped,1036.5853658536585
228,10809266,HOUSE,HOUSE,Rhode-Saint-Genese,50.7402237,4.3510557,Avenue des Tournesols 14,1640,585000,residential_sale,5,31,268.0,hyper_equipped,False,False,True,60.0,True,200.0,268.0,405.0,3.0,False,as_new,83,Sint-Genesius-Rode,Vlaams-Brabant,1146175,2118.0,542,Hyper equipped,2182.8358208955224
229,10808476,HOUSE,APARTMENT_BLOCK,Anderlecht,50.8256429,4.2949242,Rue Potaerdenberg 31,1070,1295000,residential_sale,9,0,580.0,semi_equipped,False,False,False,0.0,False,0.0,580.0,140.0,3.0,False,good,10,Anderlecht,Brussel,1208542,162.4,7442,Semi equipped,2232.758620689656
230,10816978,HOUSE,HOUSE,SAINT-GEORGES-SUR-MEUSE,50.5837965,5.358192,Avenuedes Ardennes 7d,4470,155000,residential_sale,2,23,90.0,semi_equipped,False,True,True,0.0,True,0.0,90.0,433.0,2.0,False,good,331,Saint-Georges-sur-Meuse,Liège,1106992,3857.0,288,Semi equipped,1722.2222222222222
231,10815480,HOUSE,HOUSE,La Hulpe,50.7322706,4.4806697, Avenue de Mérode 16B,1310,299000,residential_sale,3,18,165.0,semi_equipped,False,False,True,0.0,False,0.0,165.0,629.0,2.0,False,to_renovate,35,La Hulpe,Brabant wallon,403599,1097.0,368,Semi equipped,1812.121212121212
232,10816495,HOUSE,HOUSE,Affligem,50.8939607,4.1089871,Astridlaan 1,1790,414150,residential_sale,3,51,215.0,usa_hyper_equipped,False,False,True,0.0,True,250.0,215.0,321.0,3.0,False,as_new,97,Affligem,Vlaams-Brabant,1146175,2118.0,542,,1926.2790697674416
233,10815547,HOUSE,APARTMENT_BLOCK,Schaerbeek,50.8713461,4.3944176,"Avenue des Cerisiers, 212",1030,450000,residential_sale,5,20,261.0,semi_equipped,False,False,True,17.0,False,0.0,261.0,175.0,2.0,False,to_renovate,3,Schaarbeek,Brussel,1208542,162.4,7442,Semi equipped,1724.1379310344828
234,10817289,HOUSE,HOUSE,Halle,50.7460839,4.2269861,,1500,525000,residential_sale,3,40,250.0,hyper_equipped,False,True,True,10.0,True,415.0,250.0,800.0,4.0,False,just_renovated,72,Halle,Vlaams-Brabant,1146175,2118.0,542,Hyper equipped,2100.0
235,10817058,HOUSE,HOUSE,Uccle,50.8037972,4.3585991,Avenue Louise 404a,1180,780000,residential_sale,3,0,200.0,installed,False,False,False,0.0,False,0.0,200.0,110.0,2.0,False,as_new,25,Uccle,Brussel,1208542,162.4,7442,,3900.0
236,10816590,HOUSE,HOUSE,Uccle,50.7790095,4.3817062,Avenue du Pesage 10,1180,1450000,residential_sale,6,50,448.0,installed,False,True,True,48.0,True,900.0,448.0,1140.0,4.0,False,as_new,25,Uccle,Brussel,1208542,162.4,7442,,3236.6071428571427
237,10816986,HOUSE,APARTMENT_BLOCK,Wavre,50.7138241,4.6119057,Rue Langeveld 51 ,1300,1995000,residential_sale,11,30,900.0,not_installed,False,False,True,200.0,False,0.0,900.0,521.0,2.0,False,to_renovate,33,Wavre,Brabant wallon,403599,1097.0,368,Not equipped,2216.6666666666665
238,10821091,HOUSE,HOUSE,Oupeye,50.7276309,5.6252015,Rue de la Wallonie 2A,4682,114000,residential_sale,2,29,110.0,not_installed,False,False,True,29.0,True,120.0,110.0,247.0,2.0,False,to_renovate,1461,Oupeye,Liège,1106992,3857.0,288,Not equipped,1036.3636363636365
239,10822444,HOUSE,HOUSE,Gembloux,50.5787993,4.686885,Chaussee de Charleroi 59 B,5030,205000,residential_sale,2,27,98.0,semi_equipped,False,True,False,0.0,True,450.0,98.0,525.0,3.0,False,to_renovate,398,Gembloux,Namur,494325,3675.0,135,Semi equipped,2091.8367346938776
240,10820769,HOUSE,HOUSE,Eeklo,51.1898835,3.568944,Sint-Denijslaan 1,9900,290000,residential_sale,4,10,195.0,usa_installed,False,False,True,68.0,True,380.0,195.0,689.0,3.0,False,to_renovate,704,Eeklo,Oost-Vlaanderen,1515064,3007.0,504,Equipped,1487.179487179487
241,10825182,HOUSE,EXCEPTIONAL_PROPERTY,Saint-Josse-ten-Noode,50.850835,4.3799432,,1210,635000,residential_sale,7,0,318.0,semi_equipped,False,False,True,39.0,False,0.0,318.0,114.0,2.0,False,good,31,Saint-Josse-ten-Noode,Brussel,1208542,162.4,7442,Semi equipped,1996.8553459119496
242,10828537,HOUSE,TOWN_HOUSE,La Louvière Houdeng-Goegnies,50.4825844,4.1528175,Chaussée Paul Houtart 232,7110,149000,residential_sale,3,0,135.0,semi_equipped,False,False,True,0.0,False,0.0,135.0,120.0,3.0,False,good,2228,La Louvière,Hainaut,1196796,3197.0,375,Semi equipped,1103.7037037037037
243,10829598,HOUSE,HOUSE,Huy,50.5235159,5.227112,Avenuedes Ardennes 7d,4500,280000,residential_sale,3,0,130.0,installed,False,True,True,0.0,True,0.0,130.0,618.0,4.0,False,good,333,Huy,Liège,1106992,3857.0,288,,2153.846153846154
244,10817873,APARTMENT,APARTMENT,Grimbergen,50.9071853,4.3551649,"Avenue des Cerisiers, 212",1853,245000,residential_sale,3,38,92.0,not_installed,False,False,True,10.0,False,0.0,92.0,0.0,2.0,False,good,865,Grimbergen,Vlaams-Brabant,1146175,2118.0,542,Not equipped,2663.043478260869
245,10817812,APARTMENT,DUPLEX,Woluwe-Saint-Pierre,50.8323502,4.4578033,Avenue Orban 240,1150,265000,residential_sale,1,0,55.0,installed,False,False,True,7.0,False,0.0,55.0,0.0,2.0,False,to_be_done_up,19,Sint-Pieters-Woluwe,Brussel,1208542,162.4,7442,,4818.181818181818
246,10818333,APARTMENT,APARTMENT,Auderghem,50.8217344,4.4064343,Avenue de l'université 38/40,1160,349000,residential_sale,2,40,90.0,hyper_equipped,False,False,False,0.0,False,0.0,90.0,0.0,2.0,False,just_renovated,21,Auderghem,Brussel,1208542,162.4,7442,Hyper equipped,3877.777777777778
247,10818671,APARTMENT,APARTMENT,Etterbeek,50.8321994,4.3976707,Avenue Clémentine 31/4,1040,365000,residential_sale,2,40,105.0,0,False,False,True,10.0,False,0.0,105.0,0.0,3.0,False,to_be_done_up,5,Etterbeek,Brussel,1208542,162.4,7442,,3476.190476190476
248,10817805,APARTMENT,APARTMENT,Woluwe-Saint-Lambert,50.8499737,4.4307301,Parvis Sainte-Alix 37,1200,575000,residential_sale,4,45,150.0,hyper_equipped,False,False,True,9.0,False,0.0,150.0,0.0,2.0,False,good,29,Sint-Lambrechts-Woluwe,Brussel,1208542,162.4,7442,Hyper equipped,3833.3333333333335
249,10819615,APARTMENT,APARTMENT,Uccle,50.7747809,4.381118,Avenue Louise 404a,1180,970000,residential_sale,3,0,238.0,installed,False,True,False,0.0,False,0.0,238.0,0.0,4.0,False,as_new,25,Uccle,Brussel,1208542,162.4,7442,,4075.63025210084
250,10824037,APARTMENT,APARTMENT,Bruxelles,50.8552516,4.3510346,Rue Royale 178,1000,335000,residential_sale,2,30,70.0,usa_installed,False,False,False,0.0,False,0.0,70.0,0.0,2.0,False,good,1,Brussel,Brussel,1208542,162.4,7442,Equipped,4785.714285714285
251,10823563,APARTMENT,DUPLEX,Antwerp,51.2302378,4.4093803,"Mechelsesteenweg,157",2000,1550000,residential_sale,3,55,125.0,installed,False,False,True,85.0,False,0.0,125.0,0.0,2.0,False,as_new,111,Antwerpen,Antwerpen,1857986,2876.0,647,,12400.0
252,10687355,APARTMENT,PENTHOUSE,BAASRODE,51.0355301,4.1685728,Zuidlaan 2,9200,239000,residential_sale,2,0,91.0,installed,False,True,False,0.0,False,0.0,91.0,0.0,3.0,False,good,658,Dendermonde,Oost-Vlaanderen,1515064,3007.0,504,,2626.3736263736264
253,10808295,APARTMENT,DUPLEX,Gent,51.0538699,3.6879853,Sluizeken 16,9000,350000,residential_sale,2,25,110.0,hyper_equipped,False,True,True,7.0,False,0.0,110.0,0.0,2.0,False,good,641,Gent,Oost-Vlaanderen,1515064,3007.0,504,Hyper equipped,3181.818181818182
254,10827768,APARTMENT,APARTMENT,Dendermonde,51.0241549,4.1014293,Zuidlaan 2,9200,249000,residential_sale,2,0,83.0,installed,False,True,True,40.0,False,0.0,83.0,0.0,2.0,False,just_renovated,658,Dendermonde,Oost-Vlaanderen,1515064,3007.0,504,,3000.0
255,10831382,APARTMENT,APARTMENT,De Panne,51.0960077,2.5691299,Zoutelaan 53,8660,345000,residential_sale,1,0,75.0,hyper_equipped,False,False,True,6.0,False,0.0,75.0,0.0,2.0,False,as_new,603,De Panne,West-Vlaanderen,1344241,3813.0,353,Hyper equipped,4600.0
256,10832682,APARTMENT,APARTMENT,Ixelles,50.8284927,4.3718598,,1050,425000,residential_sale,2,0,89.0,hyper_equipped,False,False,True,2.0,False,0.0,89.0,0.0,2.0,False,good,6,Elsene,Brussel,1208542,162.4,7442,Hyper equipped,4775.2808988764045
257,10831634,APARTMENT,DUPLEX,Knokke-Heist,51.3500801,3.2979172,Albert plein 6 ,8300,2295000,residential_sale,3,0,154.0,usa_hyper_equipped,False,False,True,0.0,False,0.0,154.0,0.0,2.0,False,as_new,569,Knokke-Heist,West-Vlaanderen,1344241,3813.0,353,,14902.597402597405
258,10817128,APARTMENT,APARTMENT,Molenbeek-Saint-Jean,50.8584288,4.3202638,Rue Prince Baudouin 67/15,1080,249000,residential_sale,2,30,87.0,installed,False,False,True,4.0,False,0.0,87.0,0.0,2.0,False,to_be_done_up,11,Molenbeek-Saint-Jean,Brussel,1208542,162.4,7442,,2862.0689655172414
259,10815594,APARTMENT,SERVICE_FLAT,Gent,51.0539067,3.7178208,Sint-Denijslaan 1,9000,375000,residential_sale,2,0,86.0,usa_hyper_equipped,False,False,False,0.0,False,0.0,86.0,0.0,0.0,False,as_new,641,Gent,Oost-Vlaanderen,1515064,3007.0,504,,4360.46511627907
260,10641728,APARTMENT,APARTMENT,Knokke-Heist,51.3484372,3.2888781,Kustlaan 105,8300,445000,residential_sale,2,25,72.0,usa_hyper_equipped,False,False,True,3.0,False,0.0,72.0,0.0,2.0,False,to_be_done_up,569,Knokke-Heist,West-Vlaanderen,1344241,3813.0,353,,6180.555555555556
261,10779634,APARTMENT,DUPLEX,Knokke-Heist,51.3484372,3.2888781,Kustlaan 105,8300,645000,residential_sale,2,25,100.0,usa_hyper_equipped,False,False,True,15.0,False,0.0,100.0,0.0,2.0,False,good,569,Knokke-Heist,West-Vlaanderen,1344241,3813.0,353,,6450.0
262,10806847,APARTMENT,APARTMENT,Huy,50.5224312,5.2355908,Avenuedes Ardennes 7d,4500,159500,residential_sale,2,40,80.0,installed,False,True,False,0.0,False,0.0,80.0,0.0,2.0,False,good,333,Huy,Liège,1106992,3857.0,288,,1993.75
263,10805451,APARTMENT,APARTMENT,Evere,50.8628388,4.409886,Cicerolaan 33,1140,209000,residential_sale,2,0,75.0,semi_equipped,False,False,True,0.0,False,0.0,75.0,0.0,0.0,False,to_renovate,18,Evere,Brussel,1208542,162.4,7442,Semi equipped,2786.6666666666665
264,10807379,APARTMENT,APARTMENT,Antwerp,51.2131859,4.4381308,Plantin en Moretuslei 135A,2140,229000,residential_sale,2,35,98.0,semi_equipped,False,True,True,4.0,False,0.0,98.0,0.0,2.0,False,to_be_done_up,129,Antwerpen,Antwerpen,1857986,2876.0,647,Semi equipped,2336.734693877551
265,10807388,APARTMENT,APARTMENT,Deurne,51.2099777,4.4621946,Plantin en Moretuslei 135A,2100,245000,residential_sale,2,38,106.0,installed,False,True,True,6.0,False,0.0,106.0,0.0,3.0,False,good,126,Antwerpen,Antwerpen,1857986,2876.0,647,,2311.3207547169814
266,10806831,APARTMENT,DUPLEX,Merchtem,50.9584749,4.2264136,Kasteelstraat 1,1785,299000,residential_sale,2,30,115.0,installed,False,True,True,9.0,False,0.0,115.0,0.0,2.0,False,good,96,Merchtem,Vlaams-Brabant,1146175,2118.0,542,,2600.0
267,10806484,APARTMENT,APARTMENT,Herent,50.9101143,4.6639003,Mechelsesteenweg 382,3020,330000,residential_sale,2,0,115.0,installed,False,True,True,12.0,False,0.0,115.0,0.0,2.0,False,good,212,Herent,Vlaams-Brabant,1146175,2118.0,542,,2869.5652173913045
268,10807677,APARTMENT,APARTMENT,Blankenberge,51.3146594,3.122708,Franchommelaan 82-86,8370,339000,residential_sale,2,0,68.0,semi_equipped,True,True,True,0.0,False,0.0,68.0,0.0,0.0,False,good,571,Blankenberge,West-Vlaanderen,1344241,3813.0,353,Semi equipped,4985.294117647059
269,10828435,HOUSE,FARMHOUSE,Jalhay,50.5563148,5.9749131,rue des dominicains 4E,4845,695000,residential_sale,4,45,396.0,hyper_equipped,False,False,True,0.0,True,13500.0,396.0,13000.0,4.0,False,good,378,Jalhay,Liège,1106992,3857.0,288,Hyper equipped,1755.050505050505
270,10805942,HOUSE,HOUSE,Liège,50.651711,5.5536686,Rue de la Wallonie 2A,4000,199000,residential_sale,2,10,100.0,installed,False,False,True,12.0,True,145.0,100.0,303.0,3.0,False,good,293,Liège,Liège,1106992,3857.0,288,,1990.0
271,10805864,HOUSE,HOUSE,Ninove,50.8559046,4.0503519,Burchtstraat 12,9400,319000,residential_sale,2,15,142.0,hyper_equipped,False,False,True,0.0,False,0.0,142.0,540.0,3.0,False,as_new,672,Ninove,Oost-Vlaanderen,1515064,3007.0,504,Hyper equipped,2246.478873239437
272,10805661,HOUSE,HOUSE,Erpe-Mere,50.914727,3.9784697,Hoogstraat 20,9420,498000,residential_sale,4,50,250.0,hyper_equipped,False,False,True,0.0,False,0.0,250.0,1784.0,4.0,False,good,673,Erpe-Mere,Oost-Vlaanderen,1515064,3007.0,504,Hyper equipped,1992.0
273,10759725,HOUSE,VILLA,Geluwe,50.8147924,3.0747775,Noordzandstraat 66,8940,549000,residential_sale,3,53,267.0,hyper_equipped,False,False,False,0.0,False,0.0,267.0,1704.0,4.0,False,good,635,Wervik,West-Vlaanderen,1344241,3813.0,353,Hyper equipped,2056.179775280899
274,10711703,HOUSE,VILLA,Dilbeek,50.8508492,4.2336597,Astridlaan 1,1700,597000,residential_sale,4,46,224.0,installed,False,False,True,0.0,False,0.0,224.0,798.0,4.0,False,good,87,Dilbeek,Vlaams-Brabant,1146175,2118.0,542,,2665.178571428572
275,10806051,HOUSE,MANSION,Tienen,50.8091436,4.9291682,Veemarkt 14,3300,649000,residential_sale,4,28,470.0,hyper_equipped,False,False,True,28.0,True,260.0,470.0,449.0,2.0,False,as_new,231,Tienen,Vlaams-Brabant,1146175,2118.0,542,Hyper equipped,1380.851063829787
276,10806404,HOUSE,HOUSE,SENY,50.4596357,5.4113907,Avenuedes Ardennes 7d,4557,745000,residential_sale,3,47,250.0,installed,False,True,True,125.0,True,7460.0,250.0,7700.0,4.0,False,as_new,340,Tinlot,Liège,1106992,3857.0,288,,2980.0
277,10824023,HOUSE,HOUSE,Molenbeek-Saint-Jean,50.8593872,4.3152728,Rue Royale 178,1080,675000,residential_sale,6,26,212.0,hyper_equipped,False,False,True,4.0,False,0.0,212.0,155.0,2.0,False,good,11,Molenbeek-Saint-Jean,Brussel,1208542,162.4,7442,Hyper equipped,3183.962264150944
278,10827437,HOUSE,HOUSE,Kortrijk,50.8224044,3.2523598,Plein 16,8500,155000,residential_sale,2,0,150.0,semi_equipped,False,True,True,0.0,True,0.0,150.0,132.0,2.0,False,to_renovate,582,Kortrijk,West-Vlaanderen,1344241,3813.0,353,Semi equipped,1033.3333333333333
279,10826249,HOUSE,HOUSE,Outrijve,50.7586842,3.427886,"Roterijstraat, 202",8582,269500,residential_sale,3,0,140.0,installed,False,True,True,0.0,False,0.0,140.0,188.0,3.0,False,good,2543,Avelgem,West-Vlaanderen,1344241,3813.0,353,,1925.0
280,10827432,HOUSE,VILLA,GRANDMETZ,50.6247236,3.6302813,Porte d'Ogy 78,7900,385000,residential_sale,3,0,130.0,installed,False,True,True,0.0,False,0.0,130.0,849.0,4.0,True,good,560,Leuze-en-Hainaut,Hainaut,1196796,3197.0,375,,2961.538461538461
281,10827783,HOUSE,VILLA,Vilvoorde,50.9069198,4.375907,200 Hendrik I Lei,1800,869000,residential_sale,5,48,292.0,usa_hyper_equipped,False,False,True,30.0,True,757.0,292.0,998.0,4.0,True,as_new,98,Vilvoorde,Vlaams-Brabant,1146175,2118.0,542,,2976.027397260274
282,10832913,HOUSE,HOUSE,Schaerbeek,50.8671133,4.387503,,1030,995000,residential_sale,6,0,300.0,0,False,False,True,13.0,True,110.0,300.0,175.0,2.0,False,as_new,3,Schaarbeek,Brussel,1208542,162.4,7442,,3316.6666666666665
283,10802952,HOUSE,MIXED_USE_BUILDING,Ronse,50.7497806,3.591177,Stationstraat 30,9600,285000,residential_sale,5,23,339.0,installed,False,False,False,0.0,False,0.0,339.0,160.0,2.0,False,to_be_done_up,681,Ronse,Oost-Vlaanderen,1515064,3007.0,504,,840.70796460177
284,10803028,HOUSE,HOUSE,Vilvoorde,50.950505,4.463346,Hoogstraat 5,1800,549000,residential_sale,4,30,235.0,usa_hyper_equipped,False,False,True,0.0,True,162.0,235.0,330.0,3.0,False,as_new,98,Vilvoorde,Vlaams-Brabant,1146175,2118.0,542,,2336.1702127659573
285,10804438,HOUSE,HOUSE,Forest,50.8214445,4.3235191,,1190,595000,residential_sale,4,16,215.0,installed,False,False,True,10.0,True,90.0,215.0,170.0,2.0,False,to_restore,27,Forest,Brussel,1208542,162.4,7442,,2767.4418604651164
286,10808321,HOUSE,HOUSE,Herstal,50.6710455,5.5784697,Grand rue 191,4041,450000,residential_sale,3,33,161.0,usa_hyper_equipped,False,False,True,90.0,True,900.0,161.0,4681.0,4.0,False,good,1252,Herstal,Liège,1106992,3857.0,288,,2795.031055900621
287,10812060,HOUSE,HOUSE,Haaltert,50.8658665,3.9992955,Grote Markt 35,9450,340000,residential_sale,3,0,177.0,installed,False,True,True,0.0,False,0.0,177.0,455.0,3.0,False,good,674,Haaltert,Oost-Vlaanderen,1515064,3007.0,504,,1920.90395480226
288,10812032,HOUSE,VILLA,Wielsbeke,50.9101878,3.3823837,"Roterijstraat, 202",8710,470000,residential_sale,3,0,200.0,semi_equipped,False,True,True,0.0,False,0.0,200.0,950.0,4.0,False,good,609,Wielsbeke,West-Vlaanderen,1344241,3813.0,353,Semi equipped,2350.0
289,10811475,HOUSE,HOUSE,Etterbeek,50.8345493,4.3905146,Avenue Baron Albert d'Huart 130,1040,795000,residential_sale,3,28,214.0,usa_hyper_equipped,False,False,True,20.0,False,0.0,214.0,80.0,2.0,False,as_new,5,Etterbeek,Brussel,1208542,162.4,7442,,3714.953271028037
290,10806947,APARTMENT,APARTMENT,Etterbeek,50.8408973,4.3792056,Avenue Louise 200,1040,530000,residential_sale,3,32,108.0,usa_hyper_equipped,False,True,True,14.0,False,0.0,108.0,0.0,0.0,False,as_new,5,Etterbeek,Brussel,1208542,162.4,7442,,4907.407407407408
291,10805812,APARTMENT,APARTMENT,Antwerp,51.2115095,4.3989775,Zeevaartstraat 6,2000,1695000,residential_sale,4,140,326.0,hyper_equipped,False,True,True,107.0,False,0.0,326.0,0.0,2.0,False,good,111,Antwerpen,Antwerpen,1857986,2876.0,647,Hyper equipped,5199.386503067484
292,10829790,APARTMENT,APARTMENT,Amay,50.5510503,5.3161805,Avenue des Ardennes 1/02,4540,149000,residential_sale,2,28,95.0,installed,False,True,True,25.0,False,0.0,95.0,0.0,2.0,False,just_renovated,338,Amay,Liège,1106992,3857.0,288,,1568.421052631579
293,10830393,APARTMENT,APARTMENT,Maldegem,51.203915,3.461255,Kortrijkstraat 58,9990,188000,residential_sale,1,0,56.0,installed,False,True,False,0.0,False,0.0,56.0,0.0,3.0,False,good,710,Maldegem,Oost-Vlaanderen,1515064,3007.0,504,,3357.1428571428573
294,10830191,APARTMENT,APARTMENT,Crisnée,50.7064256,5.4038403,Rue de l'Yser 30,4367,189000,residential_sale,1,28,67.0,installed,False,True,False,0.0,False,0.0,67.0,0.0,0.0,False,good,324,Crisnée,Liège,1106992,3857.0,288,,2820.89552238806
295,10829081,APARTMENT,APARTMENT,Nieuwpoort,51.1466029,2.711582,Albert I Laan 229,8620,240000,residential_sale,2,22,60.0,installed,False,True,True,2.0,False,0.0,60.0,0.0,2.0,False,good,596,Nieuwpoort,West-Vlaanderen,1344241,3813.0,353,,4000.0
296,10830592,APARTMENT,APARTMENT,Antwerpen,51.2133025,4.4095706,,2000,248000,residential_sale,1,20,60.0,installed,False,False,False,0.0,False,0.0,60.0,0.0,1.0,False,as_new,111,Antwerpen,Antwerpen,1857986,2876.0,647,,4133.333333333333
297,10830151,APARTMENT,APARTMENT,Uccle,50.7959943,4.3545298,1 Avenue Henri Bourgys,1180,320000,residential_sale,1,25,84.0,hyper_equipped,True,False,True,18.0,False,0.0,84.0,0.0,0.0,False,as_new,25,Uccle,Brussel,1208542,162.4,7442,Hyper equipped,3809.5238095238096
298,10828423,APARTMENT,APARTMENT,Antwerp,51.2097098,4.4061282,Sint-Katelijnevest 24,2018,345000,residential_sale,2,0,101.0,semi_equipped,False,False,True,2.0,False,0.0,101.0,0.0,0.0,False,good,113,Antwerpen,Antwerpen,1857986,2876.0,647,Semi equipped,3415.841584158416
299,10829730,APARTMENT,APARTMENT,Willebroek,51.0611843,4.3603853,Dr. Persoonslaan 15 b ,2830,390000,residential_sale,3,0,176.0,installed,False,True,False,0.0,False,0.0,176.0,0.0,2.0,False,good,193,Willebroek,Antwerpen,1857986,2876.0,647,,2215.909090909091
300,10828309,APARTMENT,APARTMENT,Arlon,49.6556346,5.8254948,Avenue de Longwy 340,6700,395000,residential_sale,1,0,116.0,installed,False,True,False,0.0,True,0.0,116.0,0.0,0.0,False,good,468,Arlon,Luxembourg,284638,4459.0,63,,3405.1724137931037
301,10829328,APARTMENT,APARTMENT,Brussels City,50.8458016,4.3827991,"Square Ambiorix, 32/11B",1000,434000,residential_sale,3,35,120.0,not_installed,False,True,True,10.0,False,0.0,120.0,0.0,0.0,False,to_renovate,1,Brussel,Brussel,1208542,162.4,7442,Not equipped,3616.6666666666665
302,10813438,APARTMENT,APARTMENT,Uccle,50.8063894,4.337892,Rue Jean-Baptiste Colyns 17/8,1180,250000,residential_sale,1,35,59.0,usa_hyper_equipped,False,False,False,0.0,False,0.0,59.0,0.0,2.0,False,as_new,25,Uccle,Brussel,1208542,162.4,7442,,4237.28813559322
303,10813634,APARTMENT,SERVICE_FLAT,Woluwe-Saint-Pierre,50.8318343,4.4437761,"Val des Seigneurs, 9a",1150,425000,residential_sale,2,40,98.0,installed,False,False,True,24.0,False,0.0,98.0,0.0,2.0,False,as_new,19,Sint-Pieters-Woluwe,Brussel,1208542,162.4,7442,,4336.734693877551
304,10813148,APARTMENT,APARTMENT,Woluwe-Saint-Pierre,50.8275015,4.4004864,Rue Belliard 200,1150,545000,residential_sale,2,55,105.0,usa_hyper_equipped,False,False,True,8.0,False,0.0,105.0,0.0,2.0,False,just_renovated,19,Sint-Pieters-Woluwe,Brussel,1208542,162.4,7442,,5190.476190476191
305,10819280,APARTMENT,APARTMENT,Huy,50.5144109,5.236849,Avenuedes Ardennes 7d,4500,139500,residential_sale,1,35,70.0,installed,False,True,False,0.0,False,0.0,70.0,0.0,4.0,False,as_new,333,Huy,Liège,1106992,3857.0,288,,1992.857142857143
306,10818888,APARTMENT,APARTMENT,Sint-Lievens-Houtem,50.9455683,3.8702365,Stationsstraat 41B,9520,220000,residential_sale,2,34,90.0,installed,False,False,True,11.0,True,0.0,90.0,0.0,3.0,False,to_be_done_up,678,Sint-Lievens-Houtem,Oost-Vlaanderen,1515064,3007.0,504,,2444.4444444444443
307,10818676,APARTMENT,APARTMENT,Oostende,51.2317302,2.9137274,Zoutelaan 53,8400,279000,residential_sale,2,40,83.0,hyper_equipped,True,False,True,11.0,False,0.0,83.0,0.0,2.0,False,as_new,573,Oostende,West-Vlaanderen,1344241,3813.0,353,Hyper equipped,3361.4457831325303
308,10802823,APARTMENT,APARTMENT,Aalst,50.9537194,4.0426691,Brusselbaan 110,9300,285000,residential_sale,2,29,80.0,installed,False,False,True,28.0,False,0.0,80.0,0.0,2.0,False,as_new,669,Aalst,Oost-Vlaanderen,1515064,3007.0,504,,3562.5
309,10802890,APARTMENT,APARTMENT,Gent,51.0551773,3.7106841,Sint-Denijslaan 1,9000,346500,residential_sale,1,30,88.0,usa_hyper_equipped,True,False,True,22.0,False,0.0,88.0,0.0,2.0,False,as_new,641,Gent,Oost-Vlaanderen,1515064,3007.0,504,,3937.5
310,10802891,APARTMENT,APARTMENT,Gent,51.0551773,3.7106841,Sint-Denijslaan 1,9000,356500,residential_sale,1,30,91.0,usa_hyper_equipped,True,False,True,16.0,False,0.0,91.0,0.0,2.0,False,as_new,641,Gent,Oost-Vlaanderen,1515064,3007.0,504,,3917.5824175824177
311,10802987,APARTMENT,PENTHOUSE,Knokke-Heist,51.3403113,3.2864149,Zoutelaan 53,8300,1195000,residential_sale,4,72,214.0,usa_hyper_equipped,False,False,True,39.0,False,0.0,214.0,0.0,2.0,False,as_new,569,Knokke-Heist,West-Vlaanderen,1344241,3813.0,353,,5584.112149532711
312,10825463,APARTMENT,APARTMENT,Liege,50.6430021,5.6173326,Rue Chapuis 24,4020,129500,residential_sale,1,25,41.0,installed,False,False,False,0.0,False,0.0,41.0,0.0,2.0,False,as_new,1246,Liège,Liège,1106992,3857.0,288,,3158.5365853658536
313,10825841,APARTMENT,APARTMENT,Anderlecht,50.8339657,4.3293952,Boulevard de la Cambre 42,1070,195000,residential_sale,2,20,100.0,usa_installed,False,False,False,0.0,False,0.0,100.0,0.0,2.0,False,as_new,10,Anderlecht,Brussel,1208542,162.4,7442,Equipped,1950.0
314,10825683,APARTMENT,APARTMENT,Herent,50.9042119,4.675629,Mechelsesteenweg 382,3020,269000,residential_sale,1,20,64.0,installed,False,True,True,23.0,False,0.0,64.0,0.0,2.0,False,0,212,Herent,Vlaams-Brabant,1146175,2118.0,542,,4203.125
315,10827541,APARTMENT,APARTMENT,Middelkerke,51.1910234,2.822188,Zeedijk 127-128,8430,280000,residential_sale,1,0,64.0,installed,False,True,False,0.0,False,0.0,64.0,0.0,2.0,False,good,576,Middelkerke,West-Vlaanderen,1344241,3813.0,353,,4375.0
316,10826332,APARTMENT,APARTMENT,Anderlecht,50.842287,4.2975498,Avenue Charles Quint 515,1070,349000,residential_sale,3,31,110.0,installed,False,False,True,19.0,True,200.0,110.0,0.0,3.0,False,good,10,Anderlecht,Brussel,1208542,162.4,7442,,3172.7272727272725
317,10815605,HOUSE,HOUSE,Erpe-Mere,50.9464397,3.9859358,Hoogstraat 20,9420,298000,residential_sale,3,24,190.0,usa_installed,False,False,True,0.0,True,350.0,190.0,600.0,4.0,False,to_be_done_up,673,Erpe-Mere,Oost-Vlaanderen,1515064,3007.0,504,Equipped,1568.421052631579
318,10821338,HOUSE,HOUSE,Rixensart,50.713934,4.498409,"Rue de Wavre, 27",1332,310000,residential_sale,3,0,123.0,not_installed,False,False,True,0.0,True,353.0,123.0,474.0,3.0,False,to_renovate,731,Rixensart,Brabant wallon,403599,1097.0,368,Not equipped,2520.3252032520327
319,10825023,HOUSE,HOUSE,Bertrix,49.8616344,5.2523001,route de neufchateau 18 C9,6880,239000,residential_sale,5,19,181.0,installed,False,False,False,0.0,True,93.0,181.0,222.0,3.0,False,good,489,Bertrix,Luxembourg,284638,4459.0,63,,1320.4419889502765
320,10825042,HOUSE,HOUSE,Gent Sint-Denijs-Westrem,51.0295205,3.6823446,Sint-Denijslaan 1,9051,499000,residential_sale,4,0,208.0,installed,False,False,True,0.0,True,115.0,208.0,218.0,3.0,False,good,2671,Gent,Oost-Vlaanderen,1515064,3007.0,504,,2399.038461538461
321,10829681,HOUSE,HOUSE,Clavier,50.4198876,5.3009784,Route du Condroz 151,4560,279000,residential_sale,3,32,179.0,semi_equipped,False,True,False,0.0,False,0.0,179.0,1104.0,0.0,False,good,341,Clavier,Liège,1106992,3857.0,288,Semi equipped,1558.659217877095
322,10828251,HOUSE,VILLA,Malmedy,50.4062262,6.0019095,Rue Bonne Fortune 9,4960,760000,residential_sale,4,0,330.0,installed,False,False,True,0.0,False,0.0,330.0,3384.0,4.0,True,good,391,Malmedy,Liège,1106992,3857.0,288,,2303.030303030303
323,10789265,HOUSE,HOUSE,Bende,50.4009273,5.5350046,Chaussée de l'Ourthe 65,6941,69000,residential_sale,2,0,61.0,semi_equipped,False,False,True,60.0,True,255.0,61.0,315.0,4.0,False,to_be_done_up,2136,Durbuy,Luxembourg,284638,4459.0,63,Semi equipped,1131.1475409836066
324,10773632,HOUSE,HOUSE,Saint-hubert,50.0258044,5.3791865,Chaussée de l'Ourthe 65,6870,85000,residential_sale,2,22,81.0,semi_equipped,False,False,True,0.0,False,0.0,81.0,65.0,2.0,False,to_be_done_up,488,Saint-Hubert,Luxembourg,284638,4459.0,63,Semi equipped,1049.382716049383
325,10527351,HOUSE,HOUSE,Huy,50.5223854,5.2338879,Avenuedes Ardennes 7d,4500,89500,residential_sale,3,11,120.0,semi_equipped,False,True,False,0.0,False,0.0,120.0,55.0,2.0,False,to_renovate,333,Huy,Liège,1106992,3857.0,288,Semi equipped,745.8333333333334
326,10761768,HOUSE,HOUSE,LA LOUVIÈRE,50.4705445,4.1918881,Chaussée de Mons 14,7100,95000,residential_sale,2,30,92.0,not_installed,False,True,True,0.0,True,200.0,92.0,270.0,2.0,False,to_renovate,515,La Louvière,Hainaut,1196796,3197.0,375,Not equipped,1032.608695652174
327,10639263,HOUSE,APARTMENT_BLOCK,Seraing,50.6122219,5.5062916,Rue de la Wallonie 2A,4100,99000,residential_sale,2,15,115.0,not_installed,False,False,True,25.0,True,68.0,115.0,155.0,2.0,False,to_renovate,297,Seraing,Liège,1106992,3857.0,288,Not equipped,860.8695652173913
328,10707752,HOUSE,HOUSE,Seraing,50.5907459,5.5033569,Place Merlot 6,4100,119000,residential_sale,2,19,60.0,semi_equipped,False,False,True,0.0,True,50.0,60.0,123.0,2.0,False,good,297,Seraing,Liège,1106992,3857.0,288,Semi equipped,1983.3333333333333
329,10459784,HOUSE,HOUSE,Seraing,50.5812796,5.5033522,Place Merlot 6,4100,125000,residential_sale,2,18,61.0,installed,False,False,False,0.0,False,0.0,61.0,50.0,2.0,False,good,297,Seraing,Liège,1106992,3857.0,288,,2049.1803278688526
330,10801865,HOUSE,HOUSE,Ronse,50.7501219,3.5953718,Stationstraat 30,9600,129000,residential_sale,5,18,162.0,installed,False,False,False,0.0,False,0.0,162.0,60.0,2.0,False,good,681,Ronse,Oost-Vlaanderen,1515064,3007.0,504,,796.2962962962963
331,10619372,HOUSE,HOUSE,Ronse,50.7493899,3.592165,Stationstraat 30,9600,129000,residential_sale,3,13,117.0,semi_equipped,False,False,False,0.0,False,0.0,117.0,60.0,2.0,False,good,681,Ronse,Oost-Vlaanderen,1515064,3007.0,504,Semi equipped,1102.5641025641023
332,10475954,HOUSE,HOUSE,Seraing,50.6015984,5.5331517,Place Merlot 6,4100,135000,residential_sale,2,28,87.0,semi_equipped,False,False,True,17.0,True,40.0,87.0,120.0,2.0,False,to_be_done_up,297,Seraing,Liège,1106992,3857.0,288,Semi equipped,1551.7241379310344
333,10321179,HOUSE,HOUSE,Crisnée,50.703961,5.4103832,Grand rue 191,4367,138000,residential_sale,2,18,120.0,not_installed,False,False,True,16.0,False,0.0,120.0,90.0,3.0,False,to_renovate,324,Crisnée,Liège,1106992,3857.0,288,Not equipped,1150.0
334,10776425,HOUSE,HOUSE,Ronse,50.7618713,3.582867,Stationstraat 30,9600,139000,residential_sale,2,0,107.0,semi_equipped,False,False,True,10.0,True,350.0,107.0,550.0,3.0,False,to_be_done_up,681,Ronse,Oost-Vlaanderen,1515064,3007.0,504,Semi equipped,1299.0654205607475
335,10754936,HOUSE,HOUSE,Ronse,50.7451299,3.6101343,Stationstraat 30,9600,145000,residential_sale,3,0,180.0,not_installed,False,False,False,0.0,True,20.0,180.0,130.0,2.0,False,to_renovate,681,Ronse,Oost-Vlaanderen,1515064,3007.0,504,Not equipped,805.5555555555555
336,10651408,HOUSE,HOUSE,Liege,50.6333814,5.5506003,Rue de la Wallonie 2A,4000,149000,residential_sale,4,11,129.0,semi_equipped,False,False,True,27.0,True,28.0,129.0,75.0,2.0,False,to_renovate,293,Liège,Liège,1106992,3857.0,288,Semi equipped,1155.0387596899225
337,10511092,HOUSE,HOUSE,Liege,50.6134246,5.5520033,Place Merlot 6,4000,149000,residential_sale,4,24,123.0,not_installed,False,False,True,0.0,False,0.0,123.0,150.0,3.0,False,to_be_done_up,293,Liège,Liège,1106992,3857.0,288,Not equipped,1211.3821138211383
338,10689391,HOUSE,HOUSE,Seraing,50.6039791,5.4956622,Place Merlot 6,4100,149000,residential_sale,2,29,110.0,semi_equipped,False,False,True,13.0,True,54.0,110.0,185.0,2.0,False,good,297,Seraing,Liège,1106992,3857.0,288,Semi equipped,1354.5454545454545
339,10623016,HOUSE,HOUSE,Esneux Tilff,50.5720274,5.5827127,Rue de la Wallonie 2A,4130,150000,residential_sale,2,10,139.0,semi_equipped,False,False,True,36.0,True,315.0,139.0,413.0,3.0,False,to_be_done_up,299,Esneux,Liège,1106992,3857.0,288,Semi equipped,1079.136690647482
340,10693206,HOUSE,APARTMENT_BLOCK,Spa,50.4892859,5.8617814,Rue de la Wallonie 2A,4900,154000,residential_sale,2,26,93.0,installed,False,False,False,0.0,False,0.0,93.0,50.0,3.0,False,good,386,Spa,Liège,1106992,3857.0,288,,1655.9139784946235
341,10679324,HOUSE,HOUSE,Seraing,50.6007164,5.51515,Rue de la Wallonie 2A,4100,159000,residential_sale,3,14,87.0,installed,False,False,True,64.0,True,106.0,87.0,145.0,2.0,False,just_renovated,297,Seraing,Liège,1106992,3857.0,288,,1827.586206896552
342,10778026,HOUSE,HOUSE,SORÉE,50.3993048,5.1211466,Avenuedes Ardennes 7d,5340,159500,residential_sale,1,20,50.0,semi_equipped,False,True,False,0.0,False,0.0,50.0,50.0,3.0,False,as_new,410,Gesves,Namur,494325,3675.0,135,Semi equipped,3190.0
343,10777991,HOUSE,HOUSE,SORÉE,50.3993048,5.1211466,Rue Roi Albert 157,5340,159500,residential_sale,1,20,50.0,semi_equipped,False,True,False,0.0,False,0.0,50.0,50.0,3.0,False,as_new,410,Gesves,Namur,494325,3675.0,135,Semi equipped,3190.0
344,10708189,HOUSE,HOUSE,Huy,50.516016,5.2328589,Avenue des Ardennes 1/02,4500,169000,residential_sale,3,30,150.0,installed,False,True,False,0.0,True,2300.0,150.0,2450.0,2.0,False,good,333,Huy,Liège,1106992,3857.0,288,,1126.6666666666667
345,10633471,HOUSE,HOUSE,Ronse,50.7535563,3.6075352,Stationstraat 30,9600,169900,residential_sale,1,20,72.0,installed,False,False,True,3.0,False,0.0,72.0,40.0,2.0,False,to_renovate,681,Ronse,Oost-Vlaanderen,1515064,3007.0,504,,2359.722222222222
346,10749807,HOUSE,HOUSE,Lede,50.9698273,3.9653494,Hoogstraat 20,9340,170000,residential_sale,3,18,130.0,semi_equipped,False,False,True,0.0,False,0.0,130.0,179.0,3.0,False,to_renovate,671,Lede,Oost-Vlaanderen,1515064,3007.0,504,Semi equipped,1307.6923076923076
347,10810342,APARTMENT,APARTMENT,Evere,50.8760735,4.4010931,Rue Prince Baudouin 67/15,1140,215000,residential_sale,2,17,70.0,installed,False,False,True,3.0,False,0.0,70.0,0.0,2.0,False,as_new,18,Evere,Brussel,1208542,162.4,7442,,3071.428571428572
348,10811801,APARTMENT,APARTMENT,Forest,50.8138235,4.3246745,rue Antoine Breart 42,1190,250000,residential_sale,2,30,85.0,installed,False,False,True,6.0,False,0.0,85.0,0.0,2.0,False,good,27,Forest,Brussel,1208542,162.4,7442,,2941.176470588235
349,10812298,APARTMENT,APARTMENT,Jabbeke,51.1814026,3.0923448,Loppemsestraat 1,8490,269000,residential_sale,2,0,72.0,semi_equipped,False,True,True,0.0,False,0.0,72.0,0.0,3.0,False,good,581,Jabbeke,West-Vlaanderen,1344241,3813.0,353,Semi equipped,3736.1111111111113
350,10811595,APARTMENT,APARTMENT,Woluwe-Saint-Lambert,50.847609,4.437833,.,1200,305000,residential_sale,2,0,99.0,semi_equipped,False,False,True,6.0,False,0.0,99.0,0.0,2.0,False,to_be_done_up,29,Sint-Lambrechts-Woluwe,Brussel,1208542,162.4,7442,Semi equipped,3080.808080808081
351,10778476,APARTMENT,APARTMENT,Leuven,50.8799054,4.7189014,Kerkstraat 29,3000,312000,residential_sale,2,0,80.0,semi_equipped,False,False,True,3.0,False,0.0,80.0,0.0,3.0,False,to_be_done_up,210,Leuven,Vlaams-Brabant,1146175,2118.0,542,Semi equipped,3900.0
352,10812289,APARTMENT,APARTMENT,Gent,51.0560267,3.7108813,Kouter 98,9000,345000,residential_sale,2,0,120.0,installed,False,False,False,0.0,False,0.0,120.0,0.0,2.0,False,good,641,Gent,Oost-Vlaanderen,1515064,3007.0,504,,2875.0
353,10811381,APARTMENT,APARTMENT,HORION-HOZÉMONT,50.6350678,5.3961843,Avenuedes Ardennes 7d,4460,375000,residential_sale,2,100,280.0,installed,False,True,False,0.0,False,0.0,280.0,0.0,0.0,False,as_new,330,Grâce-Hollogne,Liège,1106992,3857.0,288,,1339.2857142857142
354,10810466,APARTMENT,APARTMENT,Brussels City,50.8578103,4.3481103,Tour & Taxis - Havenlaan 86c 106c,1000,559000,residential_sale,3,0,185.0,installed,False,False,False,0.0,False,0.0,185.0,0.0,4.0,False,good,1,Brussel,Brussel,1208542,162.4,7442,,3021.6216216216217
355,10648016,APARTMENT,APARTMENT,Ixelles,50.8184096,4.3717614,Avenue Louise 404a,1050,1350000,residential_sale,3,0,284.0,installed,False,True,False,0.0,False,0.0,284.0,0.0,3.0,False,as_new,6,Elsene,Brussel,1208542,162.4,7442,,4753.521126760564
356,10814138,APARTMENT,DUPLEX,Ittre,50.6476384,4.2625466,Grand Place 11,1460,450000,residential_sale,4,46,285.0,0,False,False,True,66.0,False,0.0,285.0,0.0,2.0,False,as_new,64,Ittre,Brabant wallon,403599,1097.0,368,,1578.9473684210527
357,10527503,APARTMENT,APARTMENT,Blankenberge,51.3146596,3.122708,Franchommelaan 82-86,8370,135000,residential_sale,1,0,59.0,installed,True,True,True,0.0,False,0.0,59.0,0.0,0.0,False,good,571,Blankenberge,West-Vlaanderen,1344241,3813.0,353,,2288.135593220339
358,10795660,APARTMENT,APARTMENT,Schaerbeek,50.8501787,4.3900845,Vismarkt 10 c,1030,137500,residential_sale,1,0,28.0,installed,False,True,True,2.0,False,0.0,28.0,0.0,4.0,False,good,3,Schaarbeek,Brussel,1208542,162.4,7442,,4910.714285714285
359,10655080,APARTMENT,APARTMENT,Willebroek,51.0566524,4.3575833,Valkebeekstraat 24,2830,139000,residential_sale,2,0,78.0,semi_equipped,False,True,True,0.0,False,0.0,78.0,0.0,0.0,False,good,193,Willebroek,Antwerpen,1857986,2876.0,647,Semi equipped,1782.051282051282
360,10762700,APARTMENT,APARTMENT,Ronse,50.7418337,3.5992589,Stationstraat 30,9600,145000,residential_sale,2,27,84.0,installed,False,False,True,12.0,False,0.0,84.0,0.0,2.0,False,good,681,Ronse,Oost-Vlaanderen,1515064,3007.0,504,,1726.190476190476
361,10775480,APARTMENT,APARTMENT,Saint-Gilles,50.8329013,4.3375902,Avenue de Tervueren 446,1060,155000,residential_sale,1,15,49.0,installed,False,False,False,0.0,False,0.0,49.0,0.0,2.0,False,to_renovate,8,Saint-Gilles,Brussel,1208542,162.4,7442,,3163.265306122449
362,10601973,APARTMENT,APARTMENT,Liege,50.6472097,5.5851429,Grand rue 191,4000,159000,residential_sale,2,40,75.0,usa_installed,False,False,True,3.0,False,0.0,75.0,0.0,0.0,False,as_new,293,Liège,Liège,1106992,3857.0,288,Equipped,2120.0
363,10738451,APARTMENT,APARTMENT,Ronse,50.7426861,3.5927394,Stationstraat 30,9600,164500,residential_sale,2,15,74.0,installed,False,False,True,4.0,False,0.0,74.0,0.0,2.0,False,good,681,Ronse,Oost-Vlaanderen,1515064,3007.0,504,,2222.972972972973
364,10621174,APARTMENT,APARTMENT,VILLERS-L'ÉVÊQUE,50.6931618,5.4386936,Rue Pierre Henvard 2,4340,167500,residential_sale,1,32,54.0,installed,False,True,False,0.0,False,0.0,54.0,0.0,2.0,False,good,318,Awans,Liège,1106992,3857.0,288,,3101.851851851852
365,10800958,APARTMENT,APARTMENT,Ronse,50.75035,3.60336,Grote Markt 35,9600,168000,residential_sale,2,33,86.0,installed,False,True,True,0.0,False,0.0,86.0,0.0,2.0,False,good,681,Ronse,Oost-Vlaanderen,1515064,3007.0,504,,1953.4883720930231
366,10583741,APARTMENT,APARTMENT,Huy,50.5204078,5.2353014,Avenue des Ardennes 1/02,4500,169000,residential_sale,3,35,97.0,semi_equipped,False,True,True,8.0,False,0.0,97.0,0.0,0.0,False,good,333,Huy,Liège,1106992,3857.0,288,Semi equipped,1742.2680412371135
367,10477304,APARTMENT,DUPLEX,Oupeye,50.704461,5.6465172,Rue de la Wallonie 2A,4680,169000,residential_sale,4,35,119.0,not_installed,False,False,False,0.0,True,649.0,119.0,0.0,3.0,False,to_renovate,353,Oupeye,Liège,1106992,3857.0,288,Not equipped,1420.1680672268908
368,10706094,APARTMENT,APARTMENT,Blankenberge,51.3146946,3.1343438,Franchommelaan 82-86,8370,169000,residential_sale,1,0,67.0,installed,False,True,True,0.0,False,0.0,67.0,0.0,0.0,False,good,571,Blankenberge,West-Vlaanderen,1344241,3813.0,353,,2522.3880597014927
369,10617618,APARTMENT,APARTMENT,Sint-Niklaas,51.1614016,4.1420486,,9100,169900,residential_sale,1,9,50.0,usa_hyper_equipped,False,False,True,4.0,False,0.0,50.0,0.0,2.0,False,as_new,647,Sint-Niklaas,Oost-Vlaanderen,1515064,3007.0,504,,3398.0
370,10565300,APARTMENT,APARTMENT,Merksem,51.2502763,4.4548613,Prins Boudewijnlaan 122,2170,175000,residential_sale,2,28,76.0,installed,False,True,True,2.0,False,0.0,76.0,0.0,2.0,False,to_be_done_up,133,Antwerpen,Antwerpen,1857986,2876.0,647,,2302.6315789473683
371,10735032,APARTMENT,APARTMENT,Liege,50.6382819,5.5888802,Rue de la Wallonie 2A,4020,175000,residential_sale,2,22,92.0,installed,False,False,False,0.0,False,0.0,92.0,0.0,2.0,False,good,1246,Liège,Liège,1106992,3857.0,288,,1902.1739130434785
372,10353115,APARTMENT,APARTMENT,Theux,50.5257692,5.8254892,Bouquette 69,4910,179500,residential_sale,3,30,90.0,installed,False,True,False,0.0,False,0.0,90.0,0.0,3.0,False,good,387,Theux,Liège,1106992,3857.0,288,,1994.4444444444443
373,10738452,APARTMENT,APARTMENT,Ronse,50.7426861,3.5927394,Stationstraat 30,9600,179500,residential_sale,1,24,74.0,installed,False,False,True,6.0,True,140.0,74.0,0.0,2.0,False,good,681,Ronse,Oost-Vlaanderen,1515064,3007.0,504,,2425.675675675676
374,10589917,APARTMENT,APARTMENT,Nivelles,50.587387,4.310563,Rue de Namur 93,1400,180000,residential_sale,2,25,75.0,installed,False,True,True,10.0,False,0.0,75.0,0.0,2.0,False,good,53,Nivelles,Brabant wallon,403599,1097.0,368,,2400.0
375,10784033,APARTMENT,DUPLEX,Ouffet,50.4407788,5.4629655,Route du Condroz 151,4590,189000,residential_sale,2,27,105.0,semi_equipped,False,True,True,15.0,True,70.0,105.0,0.0,0.0,False,good,344,Ouffet,Liège,1106992,3857.0,288,Semi equipped,1800.0
376,10382525,APARTMENT,APARTMENT,Nivelles,50.5931978,4.336384,Avenue de Burlet 11A,1400,192500,residential_sale,3,25,100.0,installed,False,True,True,2.0,False,0.0,100.0,0.0,2.0,False,good,53,Nivelles,Brabant wallon,403599,1097.0,368,,1925.0
377,10759940,HOUSE,HOUSE,Sint-Lievens-Houtem,50.928157,3.8906343,Hoogstraat 20,9520,175000,residential_sale,2,30,170.0,semi_equipped,False,False,True,0.0,True,235.0,170.0,409.0,4.0,False,good,678,Sint-Lievens-Houtem,Oost-Vlaanderen,1515064,3007.0,504,Semi equipped,1029.4117647058824
378,10753758,HOUSE,HOUSE,Hoegaarden,50.7694829,4.9198748,Veemarkt 14,3321,179000,residential_sale,3,22,168.0,hyper_equipped,False,False,False,0.0,True,220.0,168.0,505.0,4.0,False,to_renovate,1019,Hoegaarden,Vlaams-Brabant,1146175,2118.0,542,Hyper equipped,1065.4761904761904
379,10677619,HOUSE,HOUSE,Liege,50.6145454,5.5881509,Place Merlot 6,4031,179000,residential_sale,3,29,137.0,installed,False,False,True,16.0,True,43.0,137.0,145.0,2.0,False,good,1250,Liège,Liège,1106992,3857.0,288,,1306.5693430656934
380,10459282,HOUSE,HOUSE,Seraing,50.6015901,5.5108005,Place Merlot 6,4100,179000,residential_sale,3,27,82.0,installed,False,False,True,13.0,True,65.0,82.0,128.0,2.0,False,just_renovated,297,Seraing,Liège,1106992,3857.0,288,,2182.9268292682927
381,10795816,HOUSE,HOUSE,Wetteren,51.009285,3.87623,Hoogstraat 20,9230,179000,residential_sale,2,30,110.0,installed,False,False,True,0.0,True,80.0,110.0,140.0,2.0,False,good,661,Wetteren,Oost-Vlaanderen,1515064,3007.0,504,,1627.2727272727273
382,10740290,HOUSE,HOUSE,ERONDEGEM,50.9418305,3.9580988,Hoogstraat 20,9420,179000,residential_sale,3,32,123.0,semi_equipped,False,False,True,0.0,False,0.0,123.0,428.0,2.0,False,to_renovate,673,Erpe-Mere,Oost-Vlaanderen,1515064,3007.0,504,Semi equipped,1455.2845528455284
383,10645838,HOUSE,HOUSE,Ronse,50.7506297,3.5913497,Stationstraat 30,9600,179000,residential_sale,3,0,117.0,installed,False,False,False,0.0,True,17.0,117.0,80.0,2.0,False,just_renovated,681,Ronse,Oost-Vlaanderen,1515064,3007.0,504,,1529.91452991453
384,10529382,HOUSE,HOUSE,Vielsalm,50.2889882,5.8642277,Chaussée de l'Ourthe 65,6690,180000,residential_sale,2,36,117.0,semi_equipped,False,False,True,20.0,True,409.0,117.0,504.0,3.0,False,to_be_done_up,467,Vielsalm,Luxembourg,284638,4459.0,63,Semi equipped,1538.4615384615386
385,10769967,HOUSE,HOUSE,Neupré Plainevaux,50.546163,5.521727,Rue Simon 46/2,4122,185000,residential_sale,3,49,140.0,not_installed,False,False,True,15.0,True,326.0,140.0,370.0,2.0,False,to_renovate,1264,Neupré,Liège,1106992,3857.0,288,Not equipped,1321.428571428571
386,10795814,HOUSE,HOUSE,Aalst,50.9560272,4.0339494,Hoogstraat 20,9300,189000,residential_sale,2,30,160.0,installed,False,False,True,20.0,False,0.0,160.0,180.0,2.0,False,good,669,Aalst,Oost-Vlaanderen,1515064,3007.0,504,,1181.25
